{"results":[{"name":{"title":"Miss","first":"Gema","last":"León"},"location":{"street":{"number":3878,"name":"Calle de Téllez"},"city":"Sevilla","state":"La Rioja","country":"Spain","postcode":49730,"coordinates":{"latitude":"-34.5912","longitude":"53.3468"},"timezone":{"offset":"+3:30","description":"Tehran"}}},{"name":{"title":"Ms","first":"Lina","last":"Blashchuk"},"location":{"street":{"number":1847,"name":"Leonida Bikova"},"city":"Truskavec","state":"Lvivska","country":"Ukraine","postcode":29763,"coordinates":{"latitude":"75.0796","longitude":"-153.8185"},"timezone":{"offset":"+4:00","description":"Abu Dhabi, Muscat, Baku, Tbilisi"}}},{"name":{"title":"Ms","first":"Nikhitha","last":"Kumar"},"location":{"street":{"number":1008,"name":"Bannerghatta Rd"},"city":"Orai","state":"Uttarakhand","country":"India","postcode":41895,"coordinates":{"latitude":"2.1099","longitude":"-147.0983"},"timezone":{"offset":"+1:00","description":"Brussels, Copenhagen, Madrid, Paris"}}},{"name":{"title":"Mr","first":"Walter","last":"Wood"},"location":{"street":{"number":8834,"name":"O'Connell Street"},"city":"Sligo","state":"Wexford","country":"Ireland","postcode":33366,"coordinates":{"latitude":"-71.8608","longitude":"-157.8288"},"timezone":{"offset":"+4:00","description":"Abu Dhabi, Muscat, Baku, Tbilisi"}}},{"name":{"title":"Mr","first":"Gabe","last":"Cox"},"location":{"street":{"number":5775,"name":"Highfield Road"},"city":"Cardiff","state":"Durham","country":"United Kingdom","postcode":"S1K 5GR","coordinates":{"latitude":"-75.6019","longitude":"-94.4563"},"timezone":{"offset":"-10:00","description":"Hawaii"}}},{"name":{"title":"Ms","first":"Isabelle","last":"Hayes"},"location":{"street":{"number":2627,"name":"New Street"},"city":"Athenry","state":"Fingal","country":"Ireland","postcode":65656,"coordinates":{"latitude":"-52.3849","longitude":"131.6853"},"timezone":{"offset":"-7:00","description":"Mountain Time (US & Canada)"}}},{"name":{"title":"Mrs","first":"کیانا","last":"احمدی"},"location":{"street":{"number":7781,"name":"امام خمینی"},"city":"اصفهان","state":"کرمانشاه","country":"Iran","postcode":34883,"coordinates":{"latitude":"-5.2857","longitude":"-110.2781"},"timezone":{"offset":"+4:00","description":"Abu Dhabi, Muscat, Baku, Tbilisi"}}},{"name":{"title":"Mrs","first":"بیتا","last":"احمدی"},"location":{"street":{"number":5675,"name":"شهید بهشتی"},"city":"قزوین","state":"هرمزگان","country":"Iran","postcode":70703,"coordinates":{"latitude":"-49.0563","longitude":"143.7067"},"timezone":{"offset":"-11:00","description":"Midway Island, Samoa"}}},{"name":{"title":"Mrs","first":"Sniezka","last":"Paska"},"location":{"street":{"number":8579,"name":"Pid Dubom"},"city":"Gorodenka","state":"Avtonomna Respublika Krim","country":"Ukraine","postcode":83668,"coordinates":{"latitude":"-56.9297","longitude":"-32.5706"},"timezone":{"offset":"-10:00","description":"Hawaii"}}},{"name":{"title":"Mr","first":"Théodore","last":"Charles"},"location":{"street":{"number":7616,"name":"Rue Bony"},"city":"Reims","state":"Eure-et-Loir","country":"France","postcode":23717,"coordinates":{"latitude":"83.3607","longitude":"123.9294"},"timezone":{"offset":"+11:00","description":"Magadan, Solomon Islands, New Caledonia"}}},{"name":{"title":"Miss","first":"آنیتا","last":"علیزاده"},"location":{"street":{"number":8931,"name":"میدان توحید"},"city":"تبریز","state":"گلستان","country":"Iran","postcode":76272,"coordinates":{"latitude":"78.7212","longitude":"52.0544"},"timezone":{"offset":"+5:45","description":"Kathmandu"}}},{"name":{"title":"Mr","first":"Adam","last":"Hall"},"location":{"street":{"number":7307,"name":"Albany Expressway"},"city":"Masterton","state":"Manawatu-Wanganui","country":"New Zealand","postcode":58022,"coordinates":{"latitude":"17.7193","longitude":"53.5308"},"timezone":{"offset":"-1:00","description":"Azores, Cape Verde Islands"}}},{"name":{"title":"Mr","first":"Edwin","last":"Jones"},"location":{"street":{"number":865,"name":"Shady Ln Dr"},"city":"Raleigh","state":"New Jersey","country":"United States","postcode":15380,"coordinates":{"latitude":"-54.2180","longitude":"127.6761"},"timezone":{"offset":"+1:00","description":"Brussels, Copenhagen, Madrid, Paris"}}},{"name":{"title":"Miss","first":"Clara","last":"Henninger"},"location":{"street":{"number":9681,"name":"Mühlenstraße"},"city":"Auma-Weidatal","state":"Niedersachsen","country":"Germany","postcode":85087,"coordinates":{"latitude":"-88.1399","longitude":"-85.7596"},"timezone":{"offset":"+11:00","description":"Magadan, Solomon Islands, New Caledonia"}}},{"name":{"title":"Ms","first":"Nurdan","last":"Aydan"},"location":{"street":{"number":3439,"name":"Atatürk Sk"},"city":"Çankırı","state":"Ağrı","country":"Turkey","postcode":72704,"coordinates":{"latitude":"-41.7197","longitude":"-48.7925"},"timezone":{"offset":"-4:00","description":"Atlantic Time (Canada), Caracas, La Paz"}}},{"name":{"title":"Miss","first":"Mandy","last":"Martin"},"location":{"street":{"number":4354,"name":"Dame Street"},"city":"Tuam","state":"Longford","country":"Ireland","postcode":62661,"coordinates":{"latitude":"-7.7806","longitude":"-65.5426"},"timezone":{"offset":"+3:00","description":"Baghdad, Riyadh, Moscow, St. Petersburg"}}},{"name":{"title":"Mr","first":"Elliot","last":"Clement"},"location":{"street":{"number":4349,"name":"Rue des Ecrivains"},"city":"Le Mans","state":"Rhône","country":"France","postcode":55398,"coordinates":{"latitude":"89.9949","longitude":"156.8852"},"timezone":{"offset":"-10:00","description":"Hawaii"}}},{"name":{"title":"Mr","first":"Oscar","last":"Christensen"},"location":{"street":{"number":8588,"name":"Vestervænget"},"city":"Bælum","state":"Syddanmark","country":"Denmark","postcode":56554,"coordinates":{"latitude":"-51.0802","longitude":"-129.0280"},"timezone":{"offset":"-1:00","description":"Azores, Cape Verde Islands"}}},{"name":{"title":"Ms","first":"Sheryl","last":"Harrison"},"location":{"street":{"number":6830,"name":"Kingsway"},"city":"Westminster","state":"Mid Glamorgan","country":"United Kingdom","postcode":"OW2 3LP","coordinates":{"latitude":"75.7676","longitude":"-45.4486"},"timezone":{"offset":"-9:00","description":"Alaska"}}},{"name":{"title":"Ms","first":"Lea","last":"Sørensen"},"location":{"street":{"number":3865,"name":"Stenager"},"city":"Sommersted","state":"Midtjylland","country":"Denmark","postcode":25250,"coordinates":{"latitude":"-50.4137","longitude":"91.4814"},"timezone":{"offset":"-6:00","description":"Central Time (US & Canada), Mexico City"}}},{"name":{"title":"Monsieur","first":"Fabio","last":"Meunier"},"location":{"street":{"number":1356,"name":"Rue Dugas-Montbel"},"city":"Gy","state":"Ticino","country":"Switzerland","postcode":7249,"coordinates":{"latitude":"16.1731","longitude":"19.2604"},"timezone":{"offset":"-8:00","description":"Pacific Time (US & Canada)"}}},{"name":{"title":"Mr","first":"Ratnakar","last":"Acharya"},"location":{"street":{"number":8142,"name":"Commercial St"},"city":"Latur","state":"Andhra Pradesh","country":"India","postcode":87790,"coordinates":{"latitude":"-45.5150","longitude":"-171.0158"},"timezone":{"offset":"+9:30","description":"Adelaide, Darwin"}}},{"name":{"title":"Mr","first":"Sergio","last":"Jackson"},"location":{"street":{"number":3040,"name":"North Road"},"city":"Waterford","state":"Cork City","country":"Ireland","postcode":54016,"coordinates":{"latitude":"10.0288","longitude":"30.6468"},"timezone":{"offset":"+9:30","description":"Adelaide, Darwin"}}},{"name":{"title":"Mr","first":"Elias","last":"Kauppila"},"location":{"street":{"number":9941,"name":"Satakennankatu"},"city":"Siikajoki","state":"Satakunta","country":"Finland","postcode":23097,"coordinates":{"latitude":"-39.8562","longitude":"-114.1171"},"timezone":{"offset":"-11:00","description":"Midway Island, Samoa"}}},{"name":{"title":"Mr","first":"Arnold","last":"Beyer"},"location":{"street":{"number":5518,"name":"Rosenweg"},"city":"Warin","state":"Hessen","country":"Germany","postcode":66342,"coordinates":{"latitude":"-89.6250","longitude":"-125.5391"},"timezone":{"offset":"-5:00","description":"Eastern Time (US & Canada), Bogota, Lima"}}},{"name":{"title":"Mr","first":"Joel","last":"Salmela"},"location":{"street":{"number":7097,"name":"Pirkankatu"},"city":"Heinävesi","state":"Satakunta","country":"Finland","postcode":61421,"coordinates":{"latitude":"-25.3491","longitude":"-48.9105"},"timezone":{"offset":"+5:30","description":"Bombay, Calcutta, Madras, New Delhi"}}},{"name":{"title":"Ms","first":"Brooke","last":"Campbell"},"location":{"street":{"number":5501,"name":"School Lane"},"city":"Ripon","state":"Fife","country":"United Kingdom","postcode":"M1 9NE","coordinates":{"latitude":"32.9362","longitude":"-62.1386"},"timezone":{"offset":"+5:45","description":"Kathmandu"}}},{"name":{"title":"Mr","first":"Nooa","last":"Raisanen"},"location":{"street":{"number":3796,"name":"Pirkankatu"},"city":"Ruovesi","state":"North Karelia","country":"Finland","postcode":20396,"coordinates":{"latitude":"-44.6441","longitude":"25.5481"},"timezone":{"offset":"-10:00","description":"Hawaii"}}},{"name":{"title":"Mr","first":"Yaël","last":"Keesmaat"},"location":{"street":{"number":4276,"name":"Graafsebosweg"},"city":"Maastricht","state":"Noord-Brabant","country":"Netherlands","postcode":"4016 BM","coordinates":{"latitude":"-54.6114","longitude":"-88.5908"},"timezone":{"offset":"+6:00","description":"Almaty, Dhaka, Colombo"}}},{"name":{"title":"Miss","first":"Lola","last":"Mitchelle"},"location":{"street":{"number":3187,"name":"Grange Road"},"city":"Salford","state":"Essex","country":"United Kingdom","postcode":"XY49 2ZF","coordinates":{"latitude":"76.0234","longitude":"-25.1496"},"timezone":{"offset":"+5:45","description":"Kathmandu"}}},{"name":{"title":"Mrs","first":"Tatiana","last":"Babić"},"location":{"street":{"number":6765,"name":"Jovana Ilića"},"city":"Zaječar","state":"South Bačka","country":"Serbia","postcode":38342,"coordinates":{"latitude":"-85.4264","longitude":"-147.5402"},"timezone":{"offset":"-9:00","description":"Alaska"}}},{"name":{"title":"Mr","first":"Grayson","last":"Roberts"},"location":{"street":{"number":3684,"name":"Worcester Street"},"city":"Blenheim","state":"Auckland","country":"New Zealand","postcode":29188,"coordinates":{"latitude":"6.9638","longitude":"-138.3227"},"timezone":{"offset":"+3:00","description":"Baghdad, Riyadh, Moscow, St. Petersburg"}}},{"name":{"title":"Mr","first":"Lucas","last":"Bouchard"},"location":{"street":{"number":1651,"name":"Argyle St"},"city":"Fauquier","state":"New Brunswick","country":"Canada","postcode":"W4O 7T1","coordinates":{"latitude":"-86.9188","longitude":"51.3571"},"timezone":{"offset":"+3:30","description":"Tehran"}}},{"name":{"title":"Mr","first":"Maxwell","last":"Odonoghue"},"location":{"street":{"number":989,"name":"Albert Road"},"city":"Athenry","state":"Waterford","country":"Ireland","postcode":97924,"coordinates":{"latitude":"-1.9663","longitude":"47.2501"},"timezone":{"offset":"+4:00","description":"Abu Dhabi, Muscat, Baku, Tbilisi"}}},{"name":{"title":"Mr","first":"Beau","last":"Harris"},"location":{"street":{"number":5827,"name":"Hardy Street"},"city":"Palmerston North","state":"West Coast","country":"New Zealand","postcode":10451,"coordinates":{"latitude":"33.6136","longitude":"120.9844"},"timezone":{"offset":"-9:00","description":"Alaska"}}},{"name":{"title":"Ms","first":"Vildan","last":"Karaböcek"},"location":{"street":{"number":7061,"name":"Talak Göktepe Cd"},"city":"Gaziantep","state":"Eskişehir","country":"Turkey","postcode":13362,"coordinates":{"latitude":"-15.1416","longitude":"6.3112"},"timezone":{"offset":"0:00","description":"Western Europe Time, London, Lisbon, Casablanca"}}},{"name":{"title":"Mr","first":"Amável","last":"Freitas"},"location":{"street":{"number":877,"name":"Rua Tiradentes "},"city":"Ibirité","state":"Acre","country":"Brazil","postcode":75725,"coordinates":{"latitude":"52.4679","longitude":"84.2045"},"timezone":{"offset":"+5:00","description":"Ekaterinburg, Islamabad, Karachi, Tashkent"}}},{"name":{"title":"Ms","first":"Hermelinda","last":"Ozuna"},"location":{"street":{"number":3153,"name":"Retorno Malta"},"city":"Casa de Janos","state":"Tabasco","country":"Mexico","postcode":18004,"coordinates":{"latitude":"45.6533","longitude":"31.6458"},"timezone":{"offset":"+5:30","description":"Bombay, Calcutta, Madras, New Delhi"}}},{"name":{"title":"Mademoiselle","first":"Melisa","last":"Rey"},"location":{"street":{"number":442,"name":"Avenue Vauban"},"city":"Ernen","state":"Zug","country":"Switzerland","postcode":3064,"coordinates":{"latitude":"41.8984","longitude":"84.4704"},"timezone":{"offset":"-3:30","description":"Newfoundland"}}},{"name":{"title":"Mr","first":"Danilo","last":"Ferreira"},"location":{"street":{"number":1264,"name":"Travessa dos Martírios"},"city":"Caraguatatuba","state":"Minas Gerais","country":"Brazil","postcode":13896,"coordinates":{"latitude":"73.1682","longitude":"-3.4435"},"timezone":{"offset":"-11:00","description":"Midway Island, Samoa"}}},{"name":{"title":"Miss","first":"Christine","last":"Medina"},"location":{"street":{"number":2739,"name":"Bruce St"},"city":"Cairns","state":"Western Australia","country":"Australia","postcode":3854,"coordinates":{"latitude":"7.2554","longitude":"-144.2693"},"timezone":{"offset":"+10:00","description":"Eastern Australia, Guam, Vladivostok"}}},{"name":{"title":"Mr","first":"Andre","last":"Burke"},"location":{"street":{"number":7767,"name":"Herbert Road"},"city":"Shannon","state":"Galway City","country":"Ireland","postcode":73983,"coordinates":{"latitude":"81.4112","longitude":"32.5432"},"timezone":{"offset":"-9:00","description":"Alaska"}}},{"name":{"title":"Monsieur","first":"Halil","last":"Nguyen"},"location":{"street":{"number":7344,"name":"Rue de Gerland"},"city":"Rüdlingen","state":"Basel-Stadt","country":"Switzerland","postcode":7142,"coordinates":{"latitude":"-54.2562","longitude":"18.8260"},"timezone":{"offset":"+4:00","description":"Abu Dhabi, Muscat, Baku, Tbilisi"}}},{"name":{"title":"Mrs","first":"Cecilie","last":"Johansen"},"location":{"street":{"number":9337,"name":"Thistedvej"},"city":"Randers Nv","state":"Hovedstaden","country":"Denmark","postcode":44046,"coordinates":{"latitude":"-25.5760","longitude":"-134.5149"},"timezone":{"offset":"-8:00","description":"Pacific Time (US & Canada)"}}},{"name":{"title":"Ms","first":"Jade","last":"Jean"},"location":{"street":{"number":9342,"name":"Avenue Debrousse"},"city":"Marseille","state":"Maine-et-Loire","country":"France","postcode":26341,"coordinates":{"latitude":"32.0425","longitude":"-96.8622"},"timezone":{"offset":"0:00","description":"Western Europe Time, London, Lisbon, Casablanca"}}},{"name":{"title":"Mr","first":"Wolf","last":"Ten Hagen"},"location":{"street":{"number":1959,"name":"Beekjuffer"},"city":"Niebert","state":"Limburg","country":"Netherlands","postcode":"9168 AE","coordinates":{"latitude":"64.1556","longitude":"-169.2173"},"timezone":{"offset":"+4:00","description":"Abu Dhabi, Muscat, Baku, Tbilisi"}}},{"name":{"title":"Mr","first":"Hermann","last":"Havik"},"location":{"street":{"number":5690,"name":"Lambertseterveien"},"city":"Løpsmarka","state":"Hordaland","country":"Norway","postcode":"7623","coordinates":{"latitude":"40.5876","longitude":"-43.4656"},"timezone":{"offset":"-9:00","description":"Alaska"}}},{"name":{"title":"Miss","first":"Maddison","last":"King"},"location":{"street":{"number":2520,"name":"Target Road"},"city":"Blenheim","state":"Wellington","country":"New Zealand","postcode":57649,"coordinates":{"latitude":"63.8007","longitude":"23.6356"},"timezone":{"offset":"-6:00","description":"Central Time (US & Canada), Mexico City"}}},{"name":{"title":"Ms","first":"Ava","last":"Brar"},"location":{"street":{"number":7858,"name":"Arctic Way"},"city":"Victoria","state":"Newfoundland and Labrador","country":"Canada","postcode":"H0V 4V8","coordinates":{"latitude":"13.1506","longitude":"-120.5691"},"timezone":{"offset":"+11:00","description":"Magadan, Solomon Islands, New Caledonia"}}},{"name":{"title":"Miss","first":"Sedef","last":"Topçuoğlu"},"location":{"street":{"number":2175,"name":"Maçka Cd"},"city":"Muş","state":"İzmir","country":"Turkey","postcode":26013,"coordinates":{"latitude":"-79.1911","longitude":"-67.3591"},"timezone":{"offset":"+4:30","description":"Kabul"}}},{"name":{"title":"Ms","first":"Ronja","last":"Jarvinen"},"location":{"street":{"number":2362,"name":"Hermiankatu"},"city":"Sastamala","state":"Central Finland","country":"Finland","postcode":40384,"coordinates":{"latitude":"-87.5248","longitude":"-38.1309"},"timezone":{"offset":"+4:00","description":"Abu Dhabi, Muscat, Baku, Tbilisi"}}},{"name":{"title":"Mrs","first":"Ester","last":"Monsen"},"location":{"street":{"number":9638,"name":"Inga Bjørnsons vei"},"city":"Østhusvik","state":"Oslo","country":"Norway","postcode":"4064","coordinates":{"latitude":"14.8803","longitude":"-52.5377"},"timezone":{"offset":"+3:00","description":"Baghdad, Riyadh, Moscow, St. Petersburg"}}},{"name":{"title":"Mr","first":"Volkan","last":"Karaböcek"},"location":{"street":{"number":4345,"name":"Fatih Sultan Mehmet Cd"},"city":"Antalya","state":"Ordu","country":"Turkey","postcode":99740,"coordinates":{"latitude":"24.3382","longitude":"-137.9273"},"timezone":{"offset":"-2:00","description":"Mid-Atlantic"}}},{"name":{"title":"Mr","first":"Don","last":"Lopez"},"location":{"street":{"number":3794,"name":"W Belt Line Rd"},"city":"Warragul","state":"South Australia","country":"Australia","postcode":4252,"coordinates":{"latitude":"41.9900","longitude":"-61.9774"},"timezone":{"offset":"+7:00","description":"Bangkok, Hanoi, Jakarta"}}},{"name":{"title":"Mr","first":"Samuel","last":"Fournier"},"location":{"street":{"number":2093,"name":"Rue du Château"},"city":"Besançon","state":"Savoie","country":"France","postcode":91848,"coordinates":{"latitude":"-63.9526","longitude":"-113.0039"},"timezone":{"offset":"-3:00","description":"Brazil, Buenos Aires, Georgetown"}}},{"name":{"title":"Mrs","first":"Jasna","last":"Tadić"},"location":{"street":{"number":6562,"name":"Miodraga Popovića"},"city":"Knjaževac","state":"Srem","country":"Serbia","postcode":58510,"coordinates":{"latitude":"49.6465","longitude":"-160.8592"},"timezone":{"offset":"0:00","description":"Western Europe Time, London, Lisbon, Casablanca"}}},{"name":{"title":"Mr","first":"Okan","last":"Ağaoğlu"},"location":{"street":{"number":1581,"name":"Filistin Cd"},"city":"Hakkâri","state":"Bilecik","country":"Turkey","postcode":22950,"coordinates":{"latitude":"-68.5124","longitude":"25.1015"},"timezone":{"offset":"+8:00","description":"Beijing, Perth, Singapore, Hong Kong"}}},{"name":{"title":"Mr","first":"Lorenzo","last":"Crespo"},"location":{"street":{"number":3769,"name":"Calle Nebrija"},"city":"Barcelona","state":"La Rioja","country":"Spain","postcode":93423,"coordinates":{"latitude":"69.1051","longitude":"70.7562"},"timezone":{"offset":"-12:00","description":"Eniwetok, Kwajalein"}}},{"name":{"title":"Mr","first":"Yaromil","last":"Shinkar"},"location":{"street":{"number":9395,"name":"Arhitektora Gorodeckogo"},"city":"Selidove","state":"Mikolayivska","country":"Ukraine","postcode":96254,"coordinates":{"latitude":"-58.5749","longitude":"-87.0810"},"timezone":{"offset":"-3:30","description":"Newfoundland"}}},{"name":{"title":"Mr","first":"اميرمحمد","last":"علیزاده"},"location":{"street":{"number":630,"name":"فداییان اسلام"},"city":"سیرجان","state":"سمنان","country":"Iran","postcode":42770,"coordinates":{"latitude":"65.4813","longitude":"97.7047"},"timezone":{"offset":"-3:30","description":"Newfoundland"}}},{"name":{"title":"Ms","first":"Olivia","last":"Bowman"},"location":{"street":{"number":3080,"name":"Park Avenue"},"city":"Maynooth","state":"Kildare","country":"Ireland","postcode":55930,"coordinates":{"latitude":"84.7762","longitude":"-108.3340"},"timezone":{"offset":"0:00","description":"Western Europe Time, London, Lisbon, Casablanca"}}},{"name":{"title":"Madame","first":"Ingrid","last":"Fontai"},"location":{"street":{"number":6278,"name":"Place de L'Abbé-Franz-Stock"},"city":"Rumendingen","state":"Basel-Stadt","country":"Switzerland","postcode":6110,"coordinates":{"latitude":"-36.4349","longitude":"-61.7904"},"timezone":{"offset":"+5:45","description":"Kathmandu"}}},{"name":{"title":"Mrs","first":"Ivana","last":"Simić"},"location":{"street":{"number":4800,"name":"Žikice Jovanovića-Španca"},"city":"Stara Pazova","state":"Pirot","country":"Serbia","postcode":20239,"coordinates":{"latitude":"-72.6907","longitude":"-140.2151"},"timezone":{"offset":"+4:30","description":"Kabul"}}},{"name":{"title":"Madame","first":"Hélène","last":"Da Silva"},"location":{"street":{"number":9080,"name":"Rue André-Gide"},"city":"Buchs (Ag)","state":"Bern","country":"Switzerland","postcode":1663,"coordinates":{"latitude":"76.9797","longitude":"51.0500"},"timezone":{"offset":"+5:00","description":"Ekaterinburg, Islamabad, Karachi, Tashkent"}}},{"name":{"title":"Mr","first":"Niclas","last":"Dørum"},"location":{"street":{"number":8009,"name":"Hammersborg Torg"},"city":"Svalia","state":"Buskerud","country":"Norway","postcode":"7391","coordinates":{"latitude":"4.8374","longitude":"-117.1067"},"timezone":{"offset":"+3:00","description":"Baghdad, Riyadh, Moscow, St. Petersburg"}}},{"name":{"title":"Mrs","first":"Svitlana","last":"Lapichak"},"location":{"street":{"number":4621,"name":"Karelovska"},"city":"Ienakiieve","state":"Chernivecka","country":"Ukraine","postcode":64747,"coordinates":{"latitude":"-37.8706","longitude":"28.7468"},"timezone":{"offset":"+5:00","description":"Ekaterinburg, Islamabad, Karachi, Tashkent"}}},{"name":{"title":"Ms","first":"Esperanza","last":"Mateo"},"location":{"street":{"number":8154,"name":"Avenida Yucatán"},"city":"Cibuta","state":"Tabasco","country":"Mexico","postcode":37715,"coordinates":{"latitude":"-7.8348","longitude":"59.6164"},"timezone":{"offset":"+1:00","description":"Brussels, Copenhagen, Madrid, Paris"}}},{"name":{"title":"Mr","first":"Magnus","last":"Jørgensen"},"location":{"street":{"number":685,"name":"Fsn Karup"},"city":"Ugerløse","state":"Syddanmark","country":"Denmark","postcode":26651,"coordinates":{"latitude":"40.2603","longitude":"20.0038"},"timezone":{"offset":"-5:00","description":"Eastern Time (US & Canada), Bogota, Lima"}}},{"name":{"title":"Mr","first":"Fulgêncio","last":"Silveira"},"location":{"street":{"number":8478,"name":"Rua Amazonas "},"city":"Vila Velha","state":"Ceará","country":"Brazil","postcode":12011,"coordinates":{"latitude":"-53.8551","longitude":"-177.5327"},"timezone":{"offset":"+5:45","description":"Kathmandu"}}},{"name":{"title":"Mr","first":"Calvin","last":"Morris"},"location":{"street":{"number":9254,"name":"Station Road"},"city":"Leicester","state":"Essex","country":"United Kingdom","postcode":"CM8 0NL","coordinates":{"latitude":"-60.0969","longitude":"80.0264"},"timezone":{"offset":"+10:00","description":"Eastern Australia, Guam, Vladivostok"}}},{"name":{"title":"Mr","first":"Albert-Jan","last":"Van Dinteren"},"location":{"street":{"number":8525,"name":"Boomheide"},"city":"Gouda","state":"Gelderland","country":"Netherlands","postcode":"8452 EA","coordinates":{"latitude":"-9.9815","longitude":"-92.5260"},"timezone":{"offset":"-2:00","description":"Mid-Atlantic"}}},{"name":{"title":"Miss","first":"Verónica","last":"Núñez"},"location":{"street":{"number":7434,"name":"Calle de Tetuán"},"city":"Murcia","state":"Extremadura","country":"Spain","postcode":18918,"coordinates":{"latitude":"-63.1657","longitude":"-82.2396"},"timezone":{"offset":"+11:00","description":"Magadan, Solomon Islands, New Caledonia"}}},{"name":{"title":"Ms","first":"Alberte","last":"Petersen"},"location":{"street":{"number":2514,"name":"Kløvervænget"},"city":"Ansager","state":"Nordjylland","country":"Denmark","postcode":80246,"coordinates":{"latitude":"-3.6726","longitude":"155.6444"},"timezone":{"offset":"+5:45","description":"Kathmandu"}}},{"name":{"title":"Miss","first":"Chaithra","last":"Saldanha"},"location":{"street":{"number":2780,"name":"Car St"},"city":"Gulbarga","state":"Tamil Nadu","country":"India","postcode":12212,"coordinates":{"latitude":"-47.3529","longitude":"15.6109"},"timezone":{"offset":"-4:00","description":"Atlantic Time (Canada), Caracas, La Paz"}}},{"name":{"title":"Mr","first":"Ivan","last":"Taylor"},"location":{"street":{"number":4662,"name":"First Street"},"city":"Omaha","state":"Washington","country":"United States","postcode":41119,"coordinates":{"latitude":"-88.4739","longitude":"131.4423"},"timezone":{"offset":"-10:00","description":"Hawaii"}}},{"name":{"title":"Ms","first":"Jessica","last":"Mogen"},"location":{"street":{"number":5650,"name":"Mauritz Hansens gate"},"city":"Mule","state":"Description","country":"Norway","postcode":"5816","coordinates":{"latitude":"-5.7082","longitude":"-134.0768"},"timezone":{"offset":"+9:30","description":"Adelaide, Darwin"}}},{"name":{"title":"Mr","first":"Leo","last":"Gagnon"},"location":{"street":{"number":8158,"name":"York St"},"city":"Inwood","state":"Nova Scotia","country":"Canada","postcode":"I5S 3A3","coordinates":{"latitude":"11.0760","longitude":"-10.7615"},"timezone":{"offset":"-4:00","description":"Atlantic Time (Canada), Caracas, La Paz"}}},{"name":{"title":"Mr","first":"Oswin","last":"Spiekermann"},"location":{"street":{"number":7128,"name":"Dorfstraße"},"city":"Börde","state":"Thüringen","country":"Germany","postcode":51873,"coordinates":{"latitude":"-17.4769","longitude":"65.7638"},"timezone":{"offset":"+5:30","description":"Bombay, Calcutta, Madras, New Delhi"}}},{"name":{"title":"Miss","first":"Vildan","last":"Hoeke"},"location":{"street":{"number":3138,"name":"Hengforderweg"},"city":"Someren","state":"Noord-Holland","country":"Netherlands","postcode":"8767 WB","coordinates":{"latitude":"-10.6758","longitude":"176.3337"},"timezone":{"offset":"+7:00","description":"Bangkok, Hanoi, Jakarta"}}},{"name":{"title":"Miss","first":"Cherly","last":"Richards"},"location":{"street":{"number":7929,"name":"Dane St"},"city":"Brisbane","state":"Australian Capital Territory","country":"Australia","postcode":6472,"coordinates":{"latitude":"20.9467","longitude":"-95.8759"},"timezone":{"offset":"-5:00","description":"Eastern Time (US & Canada), Bogota, Lima"}}},{"name":{"title":"Mr","first":"Rafaél","last":"Zamora"},"location":{"street":{"number":1995,"name":"Circuito Mercado"},"city":"Villa de Méndez","state":"Oaxaca","country":"Mexico","postcode":92369,"coordinates":{"latitude":"-57.3300","longitude":"-93.4213"},"timezone":{"offset":"+3:30","description":"Tehran"}}},{"name":{"title":"Mr","first":"Nicolas","last":"Gagné"},"location":{"street":{"number":997,"name":"9th St"},"city":"Enterprise","state":"Prince Edward Island","country":"Canada","postcode":"T7O 7C4","coordinates":{"latitude":"57.5000","longitude":"-49.9896"},"timezone":{"offset":"+9:00","description":"Tokyo, Seoul, Osaka, Sapporo, Yakutsk"}}},{"name":{"title":"Mr","first":"Justin","last":"Grewal"},"location":{"street":{"number":3387,"name":"King St"},"city":"Clinton","state":"Ontario","country":"Canada","postcode":"P3Y 5C1","coordinates":{"latitude":"85.4889","longitude":"-113.3288"},"timezone":{"offset":"+5:45","description":"Kathmandu"}}},{"name":{"title":"Ms","first":"Isabella","last":"Møller"},"location":{"street":{"number":8566,"name":"Kildemarken"},"city":"Agerbæk","state":"Nordjylland","country":"Denmark","postcode":22368,"coordinates":{"latitude":"66.9352","longitude":"-127.3348"},"timezone":{"offset":"+5:00","description":"Ekaterinburg, Islamabad, Karachi, Tashkent"}}},{"name":{"title":"Ms","first":"Laura","last":"Ford"},"location":{"street":{"number":563,"name":"The Crescent"},"city":"Kilkenny","state":"Galway City","country":"Ireland","postcode":87261,"coordinates":{"latitude":"22.1998","longitude":"70.3805"},"timezone":{"offset":"-3:00","description":"Brazil, Buenos Aires, Georgetown"}}},{"name":{"title":"Mr","first":"Adalsino","last":"Vieira"},"location":{"street":{"number":5398,"name":"Rua Quinze de Novembro "},"city":"Ilhéus","state":"Paraíba","country":"Brazil","postcode":70161,"coordinates":{"latitude":"-58.4453","longitude":"120.3561"},"timezone":{"offset":"-6:00","description":"Central Time (US & Canada), Mexico City"}}},{"name":{"title":"Ms","first":"Leanne","last":"Claire"},"location":{"street":{"number":5666,"name":"Richmond Ave"},"city":"Winfield","state":"Northwest Territories","country":"Canada","postcode":"J0B 0R4","coordinates":{"latitude":"-33.9857","longitude":"158.2303"},"timezone":{"offset":"+4:00","description":"Abu Dhabi, Muscat, Baku, Tbilisi"}}},{"name":{"title":"Mademoiselle","first":"Aline","last":"Girard"},"location":{"street":{"number":8114,"name":"Rue Abel"},"city":"Winterthur","state":"Aargau","country":"Switzerland","postcode":8084,"coordinates":{"latitude":"-31.7846","longitude":"-143.0298"},"timezone":{"offset":"+9:00","description":"Tokyo, Seoul, Osaka, Sapporo, Yakutsk"}}},{"name":{"title":"Mr","first":"كيان","last":"کوتی"},"location":{"street":{"number":105,"name":"فلاحی"},"city":"ارومیه","state":"بوشهر","country":"Iran","postcode":11011,"coordinates":{"latitude":"-56.9849","longitude":"-107.3591"},"timezone":{"offset":"+9:00","description":"Tokyo, Seoul, Osaka, Sapporo, Yakutsk"}}},{"name":{"title":"Miss","first":"Maëlle","last":"Lambert"},"location":{"street":{"number":9888,"name":"Rue des Cuirassiers"},"city":"Champigny-sur-Marne","state":"Cantal","country":"France","postcode":46438,"coordinates":{"latitude":"8.2883","longitude":"22.8784"},"timezone":{"offset":"0:00","description":"Western Europe Time, London, Lisbon, Casablanca"}}},{"name":{"title":"Miss","first":"Jantsje","last":"Schopman"},"location":{"street":{"number":4654,"name":"Kuiperweg"},"city":"Jorwert","state":"Noord-Brabant","country":"Netherlands","postcode":"6683 NS","coordinates":{"latitude":"-33.1968","longitude":"-173.8244"},"timezone":{"offset":"+4:30","description":"Kabul"}}},{"name":{"title":"Miss","first":"Pamela","last":"Morales"},"location":{"street":{"number":1835,"name":"E Pecan St"},"city":"Warrnambool","state":"Australian Capital Territory","country":"Australia","postcode":7262,"coordinates":{"latitude":"-73.1999","longitude":"-1.7589"},"timezone":{"offset":"+5:30","description":"Bombay, Calcutta, Madras, New Delhi"}}},{"name":{"title":"Mr","first":"Emin","last":"Gebhardt"},"location":{"street":{"number":4708,"name":"Am Bahnhof"},"city":"Klütz","state":"Baden-Württemberg","country":"Germany","postcode":53140,"coordinates":{"latitude":"59.6737","longitude":"10.7085"},"timezone":{"offset":"-3:00","description":"Brazil, Buenos Aires, Georgetown"}}},{"name":{"title":"Mrs","first":"Sophia","last":"Sirko"},"location":{"street":{"number":6787,"name":"Grand Ave"},"city":"Cochrane","state":"Saskatchewan","country":"Canada","postcode":"M8Q 4P7","coordinates":{"latitude":"-60.5581","longitude":"100.9892"},"timezone":{"offset":"+9:30","description":"Adelaide, Darwin"}}},{"name":{"title":"Miss","first":"Aubree","last":"Gardner"},"location":{"street":{"number":3669,"name":"Pecan Acres Ln"},"city":"Orange","state":"South Australia","country":"Australia","postcode":1105,"coordinates":{"latitude":"-62.1196","longitude":"137.0700"},"timezone":{"offset":"-7:00","description":"Mountain Time (US & Canada)"}}},{"name":{"title":"Ms","first":"Charlotte","last":"Fields"},"location":{"street":{"number":5434,"name":"Spring St"},"city":"Eugene","state":"Ohio","country":"United States","postcode":27945,"coordinates":{"latitude":"-56.4109","longitude":"-9.3857"},"timezone":{"offset":"-9:00","description":"Alaska"}}},{"name":{"title":"Ms","first":"Delphine","last":"Morin"},"location":{"street":{"number":2498,"name":"9th St"},"city":"Shelbourne","state":"Yukon","country":"Canada","postcode":"X1Q 2Z8","coordinates":{"latitude":"52.9690","longitude":"156.4291"},"timezone":{"offset":"-10:00","description":"Hawaii"}}},{"name":{"title":"Ms","first":"Galaza","last":"Costa"},"location":{"street":{"number":2843,"name":"Rua São Luiz "},"city":"São Vicente","state":"Rondônia","country":"Brazil","postcode":65296,"coordinates":{"latitude":"24.3727","longitude":"-13.3495"},"timezone":{"offset":"-8:00","description":"Pacific Time (US & Canada)"}}},{"name":{"title":"Mrs","first":"Katrine","last":"Rasmussen"},"location":{"street":{"number":6277,"name":"Åkandevej"},"city":"Sandved","state":"Syddanmark","country":"Denmark","postcode":58453,"coordinates":{"latitude":"71.5442","longitude":"140.3848"},"timezone":{"offset":"-12:00","description":"Eniwetok, Kwajalein"}}},{"name":{"title":"Ms","first":"Alexis","last":"Taylor"},"location":{"street":{"number":1334,"name":"Brockville Road"},"city":"New Plymouth","state":"Canterbury","country":"New Zealand","postcode":82760,"coordinates":{"latitude":"-86.9322","longitude":"10.4220"},"timezone":{"offset":"+6:00","description":"Almaty, Dhaka, Colombo"}}},{"name":{"title":"Miss","first":"Harper","last":"Chen"},"location":{"street":{"number":8792,"name":"Great South Road"},"city":"Napier","state":"Southland","country":"New Zealand","postcode":79923,"coordinates":{"latitude":"85.5366","longitude":"-163.1911"},"timezone":{"offset":"+9:30","description":"Adelaide, Darwin"}}},{"name":{"title":"Miss","first":"Ömür","last":"Çörekçi"},"location":{"street":{"number":9330,"name":"Talak Göktepe Cd"},"city":"Adıyaman","state":"Erzincan","country":"Turkey","postcode":46087,"coordinates":{"latitude":"27.8109","longitude":"85.0517"},"timezone":{"offset":"-7:00","description":"Mountain Time (US & Canada)"}}},{"name":{"title":"Mrs","first":"Paloma","last":"Mendes"},"location":{"street":{"number":6045,"name":"Rua Bela Vista "},"city":"Araguaína","state":"Rio Grande do Norte","country":"Brazil","postcode":46231,"coordinates":{"latitude":"50.9547","longitude":"-10.9472"},"timezone":{"offset":"-8:00","description":"Pacific Time (US & Canada)"}}},{"name":{"title":"Mrs","first":"Nihal","last":"Hesselmans"},"location":{"street":{"number":9893,"name":"Dassendonk"},"city":"Overbetuwe","state":"Gelderland","country":"Netherlands","postcode":"0272 PH","coordinates":{"latitude":"-13.6241","longitude":"96.4044"},"timezone":{"offset":"-11:00","description":"Midway Island, Samoa"}}},{"name":{"title":"Mr","first":"Charles","last":"Wood"},"location":{"street":{"number":8344,"name":"Pioneer Highway"},"city":"Timaru","state":"Nelson","country":"New Zealand","postcode":56958,"coordinates":{"latitude":"-14.4565","longitude":"101.0319"},"timezone":{"offset":"+3:00","description":"Baghdad, Riyadh, Moscow, St. Petersburg"}}},{"name":{"title":"Mr","first":"Isaiah","last":"Holmes"},"location":{"street":{"number":1690,"name":"Chester Road"},"city":"Inverness","state":"Mid Glamorgan","country":"United Kingdom","postcode":"K3 3WT","coordinates":{"latitude":"-70.3229","longitude":"-156.6183"},"timezone":{"offset":"-12:00","description":"Eniwetok, Kwajalein"}}},{"name":{"title":"Ms","first":"Sowmya","last":"Gatty"},"location":{"street":{"number":1587,"name":"Coaker's Walk"},"city":"Rajkot","state":"Karnataka","country":"India","postcode":15315,"coordinates":{"latitude":"-74.7640","longitude":"53.8229"},"timezone":{"offset":"+4:30","description":"Kabul"}}},{"name":{"title":"Mr","first":"Derek","last":"Wagner"},"location":{"street":{"number":9433,"name":"E Center St"},"city":"Shepparton","state":"Queensland","country":"Australia","postcode":6673,"coordinates":{"latitude":"-75.2868","longitude":"86.1446"},"timezone":{"offset":"+9:00","description":"Tokyo, Seoul, Osaka, Sapporo, Yakutsk"}}},{"name":{"title":"Mr","first":"Natércio","last":"Moraes"},"location":{"street":{"number":5344,"name":"Rua Vinte E Dois "},"city":"Jandira","state":"Amazonas","country":"Brazil","postcode":26214,"coordinates":{"latitude":"28.9840","longitude":"-4.7222"},"timezone":{"offset":"+1:00","description":"Brussels, Copenhagen, Madrid, Paris"}}},{"name":{"title":"Mr","first":"Levi","last":"Støle"},"location":{"street":{"number":1555,"name":"Carl Jeppesens gate"},"city":"Bekkjarvik","state":"Møre og Romsdal","country":"Norway","postcode":"0202","coordinates":{"latitude":"74.8477","longitude":"-5.0588"},"timezone":{"offset":"-6:00","description":"Central Time (US & Canada), Mexico City"}}},{"name":{"title":"Ms","first":"Kashvi","last":"Bal"},"location":{"street":{"number":7119,"name":"Rajpur Rd"},"city":"Bhilai","state":"Uttarakhand","country":"India","postcode":60389,"coordinates":{"latitude":"-2.7447","longitude":"123.9294"},"timezone":{"offset":"-3:00","description":"Brazil, Buenos Aires, Georgetown"}}},{"name":{"title":"Mr","first":"Oğuzhan","last":"Pekkan"},"location":{"street":{"number":697,"name":"Anafartalar Cd"},"city":"Denizli","state":"Çorum","country":"Turkey","postcode":54286,"coordinates":{"latitude":"28.1489","longitude":"119.8976"},"timezone":{"offset":"+5:45","description":"Kathmandu"}}},{"name":{"title":"Mr","first":"Enrique","last":"Laboy"},"location":{"street":{"number":815,"name":"Corredor Sur Arevalo"},"city":"Villa de Arista","state":"Yucatan","country":"Mexico","postcode":43309,"coordinates":{"latitude":"-28.6772","longitude":"-79.2059"},"timezone":{"offset":"-12:00","description":"Eniwetok, Kwajalein"}}},{"name":{"title":"Mr","first":"Anthony","last":"Campbell"},"location":{"street":{"number":3333,"name":"36th Ave"},"city":"Notre Dame de Lourdes","state":"Northwest Territories","country":"Canada","postcode":"M5H 0I8","coordinates":{"latitude":"-66.1292","longitude":"-97.6039"},"timezone":{"offset":"-3:30","description":"Newfoundland"}}},{"name":{"title":"Mr","first":"حامد","last":"کوتی"},"location":{"street":{"number":7703,"name":"مصطفی خمینی"},"city":"ارومیه","state":"مازندران","country":"Iran","postcode":58964,"coordinates":{"latitude":"-30.4396","longitude":"49.4794"},"timezone":{"offset":"-5:00","description":"Eastern Time (US & Canada), Bogota, Lima"}}},{"name":{"title":"Mr","first":"Abraham","last":"Tafoya"},"location":{"street":{"number":2833,"name":"Callejón Páez"},"city":"San Miguel Tenextatiloyan","state":"Baja California","country":"Mexico","postcode":58485,"coordinates":{"latitude":"9.0661","longitude":"-44.1208"},"timezone":{"offset":"+4:00","description":"Abu Dhabi, Muscat, Baku, Tbilisi"}}},{"name":{"title":"Mrs","first":"پریا","last":"زارعی"},"location":{"street":{"number":382,"name":"شهید آقاسرمدیان"},"city":"قم","state":"کرمانشاه","country":"Iran","postcode":34410,"coordinates":{"latitude":"57.9805","longitude":"-67.0429"},"timezone":{"offset":"-3:30","description":"Newfoundland"}}},{"name":{"title":"Mrs","first":"Zara","last":"Jackson"},"location":{"street":{"number":822,"name":"Devonport Road"},"city":"Nelson","state":"Northland","country":"New Zealand","postcode":31613,"coordinates":{"latitude":"-20.5901","longitude":"-156.7753"},"timezone":{"offset":"+4:00","description":"Abu Dhabi, Muscat, Baku, Tbilisi"}}},{"name":{"title":"Mr","first":"Paul","last":"Johnston"},"location":{"street":{"number":5192,"name":"Rolling Green Rd"},"city":"Oxnard","state":"New Hampshire","country":"United States","postcode":94230,"coordinates":{"latitude":"32.0145","longitude":"143.5761"},"timezone":{"offset":"+5:00","description":"Ekaterinburg, Islamabad, Karachi, Tashkent"}}},{"name":{"title":"Miss","first":"Irma","last":"Gomez"},"location":{"street":{"number":6066,"name":"Parker Rd"},"city":"Overland Park","state":"Washington","country":"United States","postcode":89341,"coordinates":{"latitude":"86.8304","longitude":"33.7768"},"timezone":{"offset":"-7:00","description":"Mountain Time (US & Canada)"}}},{"name":{"title":"Mr","first":"Eren","last":"Poçan"},"location":{"street":{"number":4247,"name":"Necatibey Cd"},"city":"İzmir","state":"Uşak","country":"Turkey","postcode":98535,"coordinates":{"latitude":"-84.4935","longitude":"-45.6003"},"timezone":{"offset":"+1:00","description":"Brussels, Copenhagen, Madrid, Paris"}}},{"name":{"title":"Mademoiselle","first":"Charlotte","last":"Lacroix"},"location":{"street":{"number":763,"name":"Place du 8 Février 1962"},"city":"Bedretto","state":"Zürich","country":"Switzerland","postcode":3959,"coordinates":{"latitude":"-18.3708","longitude":"-150.3398"},"timezone":{"offset":"-12:00","description":"Eniwetok, Kwajalein"}}},{"name":{"title":"Mrs","first":"Susanne","last":"Estensen"},"location":{"street":{"number":1760,"name":"Johan Hirsch' vei"},"city":"Terråk","state":"Buskerud","country":"Norway","postcode":"0152","coordinates":{"latitude":"39.2884","longitude":"-140.8076"},"timezone":{"offset":"+5:45","description":"Kathmandu"}}},{"name":{"title":"Miss","first":"Ramona","last":"Palmer"},"location":{"street":{"number":2785,"name":"Royal Ln"},"city":"Nowra","state":"South Australia","country":"Australia","postcode":5722,"coordinates":{"latitude":"82.6997","longitude":"100.5357"},"timezone":{"offset":"-3:30","description":"Newfoundland"}}},{"name":{"title":"Miss","first":"Ellen","last":"Willis"},"location":{"street":{"number":5991,"name":"Valwood Pkwy"},"city":"Geraldton","state":"Western Australia","country":"Australia","postcode":893,"coordinates":{"latitude":"-36.4906","longitude":"128.8048"},"timezone":{"offset":"+3:30","description":"Tehran"}}},{"name":{"title":"Mr","first":"Kelly","last":"Duncan"},"location":{"street":{"number":5401,"name":"Victoria Road"},"city":"Liverpool","state":"South Glamorgan","country":"United Kingdom","postcode":"Y21 7ZU","coordinates":{"latitude":"-3.7138","longitude":"-0.3856"},"timezone":{"offset":"+3:00","description":"Baghdad, Riyadh, Moscow, St. Petersburg"}}},{"name":{"title":"Ms","first":"Paula","last":"Fuller"},"location":{"street":{"number":5984,"name":"W Belt Line Rd"},"city":"Tweed","state":"Western Australia","country":"Australia","postcode":7607,"coordinates":{"latitude":"-5.0515","longitude":"109.3098"},"timezone":{"offset":"+4:00","description":"Abu Dhabi, Muscat, Baku, Tbilisi"}}},{"name":{"title":"Mr","first":"Sansão","last":"Ferreira"},"location":{"street":{"number":3034,"name":"Rua Vinte de Setembro"},"city":"Bragança Paulista","state":"Mato Grosso do Sul","country":"Brazil","postcode":91268,"coordinates":{"latitude":"-17.5881","longitude":"-48.8581"},"timezone":{"offset":"+5:00","description":"Ekaterinburg, Islamabad, Karachi, Tashkent"}}},{"name":{"title":"Mrs","first":"Elda","last":"Carvalho"},"location":{"street":{"number":3837,"name":"Rua Rio de Janeiro "},"city":"Camaçari","state":"Acre","country":"Brazil","postcode":68055,"coordinates":{"latitude":"-3.0757","longitude":"-67.8434"},"timezone":{"offset":"+5:00","description":"Ekaterinburg, Islamabad, Karachi, Tashkent"}}},{"name":{"title":"Mrs","first":"Sophia","last":"Miles"},"location":{"street":{"number":3217,"name":"Parker Rd"},"city":"High Point","state":"Georgia","country":"United States","postcode":39365,"coordinates":{"latitude":"48.3792","longitude":"137.3058"},"timezone":{"offset":"+1:00","description":"Brussels, Copenhagen, Madrid, Paris"}}},{"name":{"title":"Miss","first":"Stephanie","last":"Hansen"},"location":{"street":{"number":4674,"name":"Mill Lane"},"city":"Bangor","state":"Cheshire","country":"United Kingdom","postcode":"MQ6 5DR","coordinates":{"latitude":"84.9159","longitude":"-178.8276"},"timezone":{"offset":"+5:00","description":"Ekaterinburg, Islamabad, Karachi, Tashkent"}}},{"name":{"title":"Ms","first":"Anđela","last":"Jeremić"},"location":{"street":{"number":6494,"name":"Ljube Rankovića"},"city":"Žitorađa","state":"Braničevo","country":"Serbia","postcode":79550,"coordinates":{"latitude":"20.7147","longitude":"2.7055"},"timezone":{"offset":"-3:00","description":"Brazil, Buenos Aires, Georgetown"}}},{"name":{"title":"Mrs","first":"Nerea","last":"Herrera"},"location":{"street":{"number":9082,"name":"Calle de Arganzuela"},"city":"Cuenca","state":"Comunidad de Madrid","country":"Spain","postcode":92338,"coordinates":{"latitude":"-14.1763","longitude":"-2.7601"},"timezone":{"offset":"+10:00","description":"Eastern Australia, Guam, Vladivostok"}}},{"name":{"title":"Mr","first":"Kairav","last":"Chavare"},"location":{"street":{"number":2957,"name":"Raviwar Peth"},"city":"Bhilai","state":"Maharashtra","country":"India","postcode":74072,"coordinates":{"latitude":"-64.8564","longitude":"-34.2460"},"timezone":{"offset":"-2:00","description":"Mid-Atlantic"}}},{"name":{"title":"Mrs","first":"Elizabeth","last":"Kowalski"},"location":{"street":{"number":2604,"name":"Wellington St"},"city":"Burlington","state":"Nunavut","country":"Canada","postcode":"B2Y 9O8","coordinates":{"latitude":"53.1707","longitude":"69.7200"},"timezone":{"offset":"-12:00","description":"Eniwetok, Kwajalein"}}},{"name":{"title":"Madame","first":"Leila","last":"Roussel"},"location":{"street":{"number":7585,"name":"Rue Pasteur"},"city":"Lengwil","state":"Bern","country":"Switzerland","postcode":4680,"coordinates":{"latitude":"-12.6659","longitude":"28.3714"},"timezone":{"offset":"-3:30","description":"Newfoundland"}}},{"name":{"title":"Mr","first":"Kyro","last":"Roordink"},"location":{"street":{"number":4822,"name":"Griede"},"city":"Bilthoven","state":"Drenthe","country":"Netherlands","postcode":"9303 YB","coordinates":{"latitude":"27.4549","longitude":"55.5381"},"timezone":{"offset":"0:00","description":"Western Europe Time, London, Lisbon, Casablanca"}}},{"name":{"title":"Mr","first":"Kadir","last":"Tokgöz"},"location":{"street":{"number":2936,"name":"Atatürk Sk"},"city":"Çorum","state":"Bitlis","country":"Turkey","postcode":44692,"coordinates":{"latitude":"-45.6083","longitude":"9.8600"},"timezone":{"offset":"-3:00","description":"Brazil, Buenos Aires, Georgetown"}}},{"name":{"title":"Mr","first":"Jann","last":"Sattler"},"location":{"street":{"number":1781,"name":"Burgstraße"},"city":"Borgentreich","state":"Brandenburg","country":"Germany","postcode":28115,"coordinates":{"latitude":"-56.0768","longitude":"95.3577"},"timezone":{"offset":"+9:00","description":"Tokyo, Seoul, Osaka, Sapporo, Yakutsk"}}},{"name":{"title":"Mrs","first":"Margie","last":"Mcdonalid"},"location":{"street":{"number":379,"name":"E North St"},"city":"Spokane","state":"Montana","country":"United States","postcode":30509,"coordinates":{"latitude":"-33.1098","longitude":"-10.7804"},"timezone":{"offset":"+4:30","description":"Kabul"}}},{"name":{"title":"Mr","first":"Angelos","last":"Cecilia"},"location":{"street":{"number":278,"name":"Bingelkruid"},"city":"Beers Nb","state":"Noord-Brabant","country":"Netherlands","postcode":"9872 HL","coordinates":{"latitude":"9.8532","longitude":"-151.9696"},"timezone":{"offset":"+3:00","description":"Baghdad, Riyadh, Moscow, St. Petersburg"}}},{"name":{"title":"Ms","first":"Lycke","last":"Lehne"},"location":{"street":{"number":3682,"name":"Brantenborgveien"},"city":"Vestby","state":"Nordland","country":"Norway","postcode":"8960","coordinates":{"latitude":"-17.5607","longitude":"60.2956"},"timezone":{"offset":"+1:00","description":"Brussels, Copenhagen, Madrid, Paris"}}},{"name":{"title":"Mr","first":"Bryan","last":"Kennedy"},"location":{"street":{"number":2339,"name":"Mill Road"},"city":"Dunboyne","state":"Kildare","country":"Ireland","postcode":62064,"coordinates":{"latitude":"71.9583","longitude":"-105.1471"},"timezone":{"offset":"+2:00","description":"Kaliningrad, South Africa"}}},{"name":{"title":"Mr","first":"Rickey","last":"Ran"},"location":{"street":{"number":4069,"name":"Bakelbos"},"city":"Otterlo","state":"Limburg","country":"Netherlands","postcode":"6288 AQ","coordinates":{"latitude":"84.8482","longitude":"-58.0709"},"timezone":{"offset":"+8:00","description":"Beijing, Perth, Singapore, Hong Kong"}}},{"name":{"title":"Mrs","first":"Anne-Claire","last":"Van den Aker"},"location":{"street":{"number":7651,"name":"De Smidte"},"city":"Veenoord","state":"Gelderland","country":"Netherlands","postcode":"6747 XU","coordinates":{"latitude":"-51.9845","longitude":"-18.3198"},"timezone":{"offset":"-1:00","description":"Azores, Cape Verde Islands"}}},{"name":{"title":"Mrs","first":"Sophie","last":"Wood"},"location":{"street":{"number":5046,"name":"Saint Aubyn Street"},"city":"Hastings","state":"Auckland","country":"New Zealand","postcode":10937,"coordinates":{"latitude":"66.4948","longitude":"144.2132"},"timezone":{"offset":"-7:00","description":"Mountain Time (US & Canada)"}}},{"name":{"title":"Mrs","first":"Resa","last":"Slag"},"location":{"street":{"number":7913,"name":"Jongemastate"},"city":"Oosterwolde Fr","state":"Noord-Holland","country":"Netherlands","postcode":"0153 PR","coordinates":{"latitude":"-81.6734","longitude":"-155.7566"},"timezone":{"offset":"+1:00","description":"Brussels, Copenhagen, Madrid, Paris"}}},{"name":{"title":"Ms","first":"Matilda","last":"Mehmood"},"location":{"street":{"number":2898,"name":"Øvre Vollgate"},"city":"Lindås","state":"Sør-Trøndelag","country":"Norway","postcode":"6392","coordinates":{"latitude":"-71.7807","longitude":"114.9676"},"timezone":{"offset":"+4:30","description":"Kabul"}}},{"name":{"title":"Mr","first":"Theo","last":"Barnaby"},"location":{"street":{"number":9711,"name":"Concession Road 23"},"city":"Westport","state":"Québec","country":"Canada","postcode":"L6B 1P9","coordinates":{"latitude":"88.8382","longitude":"-160.3932"},"timezone":{"offset":"-4:00","description":"Atlantic Time (Canada), Caracas, La Paz"}}},{"name":{"title":"Mrs","first":"Eva","last":"Pelletier"},"location":{"street":{"number":8908,"name":"Vimy St"},"city":"Sherbrooke","state":"Saskatchewan","country":"Canada","postcode":"C3J 2W6","coordinates":{"latitude":"-64.6395","longitude":"154.0825"},"timezone":{"offset":"+6:00","description":"Almaty, Dhaka, Colombo"}}},{"name":{"title":"Miss","first":"Carmen","last":"Diaz"},"location":{"street":{"number":8232,"name":"Avenida de Salamanca"},"city":"Alcobendas","state":"Asturias","country":"Spain","postcode":76606,"coordinates":{"latitude":"-5.5319","longitude":"-153.1298"},"timezone":{"offset":"-5:00","description":"Eastern Time (US & Canada), Bogota, Lima"}}},{"name":{"title":"Mr","first":"Johnny","last":"Frazier"},"location":{"street":{"number":7890,"name":"George Street"},"city":"Athy","state":"Cork","country":"Ireland","postcode":58811,"coordinates":{"latitude":"0.4937","longitude":"121.2725"},"timezone":{"offset":"-10:00","description":"Hawaii"}}},{"name":{"title":"Monsieur","first":"João","last":"Carpentier"},"location":{"street":{"number":2169,"name":"Rue Chazière"},"city":"Spreitenbach","state":"Uri","country":"Switzerland","postcode":3378,"coordinates":{"latitude":"-61.8696","longitude":"37.6384"},"timezone":{"offset":"+4:30","description":"Kabul"}}},{"name":{"title":"Monsieur","first":"Carmelo","last":"Masson"},"location":{"street":{"number":6549,"name":"Rue Dubois"},"city":"Icogne","state":"Luzern","country":"Switzerland","postcode":6907,"coordinates":{"latitude":"-27.1645","longitude":"104.5375"},"timezone":{"offset":"-10:00","description":"Hawaii"}}},{"name":{"title":"Madame","first":"Ilaria","last":"Leroux"},"location":{"street":{"number":6993,"name":"Rue Dugas-Montbel"},"city":"Chavannes-de-Bogis","state":"Basel-Landschaft","country":"Switzerland","postcode":7098,"coordinates":{"latitude":"-9.5049","longitude":"-71.7943"},"timezone":{"offset":"+3:00","description":"Baghdad, Riyadh, Moscow, St. Petersburg"}}},{"name":{"title":"Miss","first":"پرنیا","last":"محمدخان"},"location":{"street":{"number":6160,"name":"دکتر چمران"},"city":"خوی","state":"خراسان جنوبی","country":"Iran","postcode":64070,"coordinates":{"latitude":"-40.8254","longitude":"104.2009"},"timezone":{"offset":"+3:30","description":"Tehran"}}},{"name":{"title":"Monsieur","first":"Alfred","last":"Sanchez"},"location":{"street":{"number":5607,"name":"Montée du Chemin-Neuf"},"city":"Wetzikon (Zh)","state":"St. Gallen","country":"Switzerland","postcode":2390,"coordinates":{"latitude":"-84.5489","longitude":"100.6573"},"timezone":{"offset":"+10:00","description":"Eastern Australia, Guam, Vladivostok"}}},{"name":{"title":"Ms","first":"Linda","last":"Treviño"},"location":{"street":{"number":320,"name":"Diagonal Meza"},"city":"Tabasco","state":"San Luis Potosí","country":"Mexico","postcode":96932,"coordinates":{"latitude":"-3.4347","longitude":"-158.6280"},"timezone":{"offset":"-10:00","description":"Hawaii"}}},{"name":{"title":"Mr","first":"Mohamed","last":"Grenz"},"location":{"street":{"number":6695,"name":"Finkenweg"},"city":"Weißenthurm","state":"Brandenburg","country":"Germany","postcode":60036,"coordinates":{"latitude":"-21.5201","longitude":"-70.4945"},"timezone":{"offset":"-3:00","description":"Brazil, Buenos Aires, Georgetown"}}},{"name":{"title":"Mr","first":"Peetu","last":"Hiltunen"},"location":{"street":{"number":5321,"name":"Tehtaankatu"},"city":"Vesanto","state":"Tavastia Proper","country":"Finland","postcode":34803,"coordinates":{"latitude":"-44.8000","longitude":"91.7114"},"timezone":{"offset":"-3:00","description":"Brazil, Buenos Aires, Georgetown"}}},{"name":{"title":"Monsieur","first":"Ivo","last":"Martin"},"location":{"street":{"number":6832,"name":"Rue Pierre-Delore"},"city":"Grächen","state":"Obwalden","country":"Switzerland","postcode":8736,"coordinates":{"latitude":"4.6865","longitude":"-105.9176"},"timezone":{"offset":"-8:00","description":"Pacific Time (US & Canada)"}}},{"name":{"title":"Mr","first":"Pål","last":"Stormyr"},"location":{"street":{"number":4740,"name":"Hovinveien"},"city":"Preststranda","state":"Nord-Trøndelag","country":"Norway","postcode":"1963","coordinates":{"latitude":"-7.3066","longitude":"10.5733"},"timezone":{"offset":"+4:00","description":"Abu Dhabi, Muscat, Baku, Tbilisi"}}},{"name":{"title":"Ms","first":"Teresa","last":"Lawson"},"location":{"street":{"number":5496,"name":"Harrison Ct"},"city":"Hobart","state":"Western Australia","country":"Australia","postcode":6199,"coordinates":{"latitude":"20.3091","longitude":"-2.5627"},"timezone":{"offset":"-1:00","description":"Azores, Cape Verde Islands"}}},{"name":{"title":"Mr","first":"Daniel","last":"Stokland"},"location":{"street":{"number":9348,"name":"Siloveien"},"city":"Ålgård","state":"Nordland","country":"Norway","postcode":"4355","coordinates":{"latitude":"59.8529","longitude":"127.1876"},"timezone":{"offset":"-9:00","description":"Alaska"}}},{"name":{"title":"Mr","first":"Phoenix","last":"Clarke"},"location":{"street":{"number":7569,"name":"Lunn Avenue"},"city":"Christchurch","state":"West Coast","country":"New Zealand","postcode":53803,"coordinates":{"latitude":"7.6466","longitude":"56.0924"},"timezone":{"offset":"-5:00","description":"Eastern Time (US & Canada), Bogota, Lima"}}},{"name":{"title":"Mr","first":"Marco","last":"Peralta"},"location":{"street":{"number":208,"name":"Boulevard Sinaloa"},"city":"Los Frailes","state":"Aguascalientes","country":"Mexico","postcode":38111,"coordinates":{"latitude":"82.6174","longitude":"-48.7352"},"timezone":{"offset":"-1:00","description":"Azores, Cape Verde Islands"}}},{"name":{"title":"Mr","first":"Steven","last":"Ramirez"},"location":{"street":{"number":8074,"name":"Northaven Rd"},"city":"Coffs Harbour","state":"South Australia","country":"Australia","postcode":9129,"coordinates":{"latitude":"86.0070","longitude":"113.9813"},"timezone":{"offset":"+7:00","description":"Bangkok, Hanoi, Jakarta"}}},{"name":{"title":"Mr","first":"Zachary","last":"Gagné"},"location":{"street":{"number":5360,"name":"Maple Ave"},"city":"Deer Lake","state":"Nunavut","country":"Canada","postcode":"U0S 5F7","coordinates":{"latitude":"82.8118","longitude":"58.9995"},"timezone":{"offset":"-3:00","description":"Brazil, Buenos Aires, Georgetown"}}},{"name":{"title":"Mr","first":"Erben","last":"Flantua"},"location":{"street":{"number":8965,"name":"Dr. P. Hoekstralaan"},"city":"Gorredijk","state":"Utrecht","country":"Netherlands","postcode":"3931 RA","coordinates":{"latitude":"29.8534","longitude":"-0.9218"},"timezone":{"offset":"+8:00","description":"Beijing, Perth, Singapore, Hong Kong"}}},{"name":{"title":"Mademoiselle","first":"Huguette","last":"Rodriguez"},"location":{"street":{"number":8499,"name":"Rue Bataille"},"city":"Seltisberg","state":"Fribourg","country":"Switzerland","postcode":7279,"coordinates":{"latitude":"31.9885","longitude":"176.5157"},"timezone":{"offset":"+5:45","description":"Kathmandu"}}},{"name":{"title":"Miss","first":"Marie-Luise","last":"Siefert"},"location":{"street":{"number":6292,"name":"Wiesenstraße"},"city":"Grünstadt","state":"Bayern","country":"Germany","postcode":89604,"coordinates":{"latitude":"-17.0335","longitude":"80.8407"},"timezone":{"offset":"-5:00","description":"Eastern Time (US & Canada), Bogota, Lima"}}},{"name":{"title":"Ms","first":"Carol","last":"Graves"},"location":{"street":{"number":1931,"name":"School Lane"},"city":"Cashel","state":"Dublin City","country":"Ireland","postcode":74525,"coordinates":{"latitude":"-4.9617","longitude":"4.7712"},"timezone":{"offset":"+10:00","description":"Eastern Australia, Guam, Vladivostok"}}},{"name":{"title":"Monsieur","first":"Darko","last":"Caron"},"location":{"street":{"number":9010,"name":"Place du 8 Février 1962"},"city":"Aefligen","state":"Obwalden","country":"Switzerland","postcode":4891,"coordinates":{"latitude":"64.3037","longitude":"140.2615"},"timezone":{"offset":"-3:00","description":"Brazil, Buenos Aires, Georgetown"}}},{"name":{"title":"Mr","first":"Allan","last":"Arnold"},"location":{"street":{"number":2240,"name":"Fairview St"},"city":"Toowoomba","state":"Victoria","country":"Australia","postcode":6089,"coordinates":{"latitude":"82.0106","longitude":"-125.3558"},"timezone":{"offset":"-10:00","description":"Hawaii"}}},{"name":{"title":"Mr","first":"Tomislav","last":"Stojanović"},"location":{"street":{"number":8124,"name":"Vinogradski Venac"},"city":"Užice","state":"Pomoravlje","country":"Serbia","postcode":96743,"coordinates":{"latitude":"-34.5945","longitude":"-3.1199"},"timezone":{"offset":"-7:00","description":"Mountain Time (US & Canada)"}}},{"name":{"title":"Ms","first":"Charlotte","last":"White"},"location":{"street":{"number":4602,"name":"Rattray Street"},"city":"Invercargill","state":"Bay of Plenty","country":"New Zealand","postcode":46005,"coordinates":{"latitude":"-89.6005","longitude":"-0.6933"},"timezone":{"offset":"-5:00","description":"Eastern Time (US & Canada), Bogota, Lima"}}},{"name":{"title":"Ms","first":"Madhumita","last":"Bhoja"},"location":{"street":{"number":4087,"name":"Ranganathan St"},"city":"Thrissur","state":"Andaman and Nicobar Islands","country":"India","postcode":68172,"coordinates":{"latitude":"-14.8869","longitude":"-132.3615"},"timezone":{"offset":"-4:00","description":"Atlantic Time (Canada), Caracas, La Paz"}}},{"name":{"title":"Monsieur","first":"Linus","last":"Renard"},"location":{"street":{"number":2132,"name":"Rue Duguesclin"},"city":"Gerzensee","state":"Glarus","country":"Switzerland","postcode":6445,"coordinates":{"latitude":"-4.7807","longitude":"68.9823"},"timezone":{"offset":"-11:00","description":"Midway Island, Samoa"}}},{"name":{"title":"Mr","first":"Ethan","last":"Dufour"},"location":{"street":{"number":5580,"name":"Rue des Écoles"},"city":"Reims","state":"Guyane","country":"France","postcode":42182,"coordinates":{"latitude":"53.8481","longitude":"22.5744"},"timezone":{"offset":"+4:30","description":"Kabul"}}},{"name":{"title":"Miss","first":"Emma","last":"Ahonen"},"location":{"street":{"number":5724,"name":"Verkatehtaankatu"},"city":"Kärkölä","state":"Pirkanmaa","country":"Finland","postcode":26122,"coordinates":{"latitude":"-18.0795","longitude":"44.9919"},"timezone":{"offset":"+5:45","description":"Kathmandu"}}},{"name":{"title":"Miss","first":"Akshitha","last":"Sheikh"},"location":{"street":{"number":5801,"name":"Raviwar Peth"},"city":"Danapur","state":"Chandigarh","country":"India","postcode":45910,"coordinates":{"latitude":"68.3201","longitude":"69.4421"},"timezone":{"offset":"+8:00","description":"Beijing, Perth, Singapore, Hong Kong"}}},{"name":{"title":"Miss","first":"Aayushi","last":"Shenoy"},"location":{"street":{"number":7199,"name":"MG Rd Bangalore"},"city":"Ranchi","state":"Chhattisgarh","country":"India","postcode":38693,"coordinates":{"latitude":"-68.6824","longitude":"-123.4007"},"timezone":{"offset":"+4:30","description":"Kabul"}}},{"name":{"title":"Mr","first":"Salvador","last":"Rojas"},"location":{"street":{"number":124,"name":"Paseo de Extremadura"},"city":"Elche","state":"Cataluña","country":"Spain","postcode":85489,"coordinates":{"latitude":"44.0303","longitude":"-141.0801"},"timezone":{"offset":"+5:45","description":"Kathmandu"}}},{"name":{"title":"Miss","first":"Ariadna","last":"Borisko"},"location":{"street":{"number":8041,"name":"Dnisterska"},"city":"Kamin-Kashirskiy","state":"Sumska","country":"Ukraine","postcode":19790,"coordinates":{"latitude":"-88.5879","longitude":"74.6425"},"timezone":{"offset":"+1:00","description":"Brussels, Copenhagen, Madrid, Paris"}}},{"name":{"title":"Mrs","first":"Nikhitha","last":"Patil"},"location":{"street":{"number":2481,"name":"Kasba Peth"},"city":"South Dumdum","state":"Goa","country":"India","postcode":74394,"coordinates":{"latitude":"64.8373","longitude":"102.3042"},"timezone":{"offset":"+4:30","description":"Kabul"}}},{"name":{"title":"Mr","first":"Johan","last":"Andersen"},"location":{"street":{"number":1719,"name":"Venusvej"},"city":"Argerskov","state":"Nordjylland","country":"Denmark","postcode":83134,"coordinates":{"latitude":"-40.8085","longitude":"-116.3769"},"timezone":{"offset":"+5:00","description":"Ekaterinburg, Islamabad, Karachi, Tashkent"}}},{"name":{"title":"Ms","first":"Manon","last":"Rodriguez"},"location":{"street":{"number":4664,"name":"Rue de la Fontaine"},"city":"Dunkerque","state":"Aisne","country":"France","postcode":61759,"coordinates":{"latitude":"-24.3164","longitude":"-9.7166"},"timezone":{"offset":"-4:00","description":"Atlantic Time (Canada), Caracas, La Paz"}}},{"name":{"title":"Mr","first":"Jonathan","last":"Howell"},"location":{"street":{"number":2314,"name":"Parker Rd"},"city":"Adelaide","state":"Northern Territory","country":"Australia","postcode":8702,"coordinates":{"latitude":"38.8468","longitude":"-90.4473"},"timezone":{"offset":"+5:30","description":"Bombay, Calcutta, Madras, New Delhi"}}},{"name":{"title":"Mrs","first":"Regina","last":"Steward"},"location":{"street":{"number":2164,"name":"Nowlin Rd"},"city":"Rockhampton","state":"Australian Capital Territory","country":"Australia","postcode":1126,"coordinates":{"latitude":"-24.9248","longitude":"97.7130"},"timezone":{"offset":"-4:00","description":"Atlantic Time (Canada), Caracas, La Paz"}}},{"name":{"title":"Mrs","first":"Sara","last":"Sanz"},"location":{"street":{"number":8903,"name":"Ronda de Toledo"},"city":"Santiago de Compostela","state":"Melilla","country":"Spain","postcode":12631,"coordinates":{"latitude":"-73.5337","longitude":"7.8153"},"timezone":{"offset":"+4:00","description":"Abu Dhabi, Muscat, Baku, Tbilisi"}}},{"name":{"title":"Mr","first":"Jelt","last":"Kil"},"location":{"street":{"number":2419,"name":"Brouwershoekweg"},"city":"Lamswaarde","state":"Utrecht","country":"Netherlands","postcode":"3937 QL","coordinates":{"latitude":"-62.3910","longitude":"133.0877"},"timezone":{"offset":"+5:45","description":"Kathmandu"}}},{"name":{"title":"Miss","first":"Eva","last":"Foster"},"location":{"street":{"number":631,"name":"W Pecan St"},"city":"Toowoomba","state":"South Australia","country":"Australia","postcode":8544,"coordinates":{"latitude":"-67.9408","longitude":"129.5682"},"timezone":{"offset":"-5:00","description":"Eastern Time (US & Canada), Bogota, Lima"}}},{"name":{"title":"Mr","first":"Logan","last":"Miller"},"location":{"street":{"number":7997,"name":"22nd Ave"},"city":"Wellington","state":"Saskatchewan","country":"Canada","postcode":"Y9R 9Z3","coordinates":{"latitude":"-1.1405","longitude":"-81.7654"},"timezone":{"offset":"-10:00","description":"Hawaii"}}},{"name":{"title":"Ms","first":"Gisa","last":"Heitmann"},"location":{"street":{"number":8412,"name":"Goethestraße"},"city":"Oberhavel","state":"Baden-Württemberg","country":"Germany","postcode":82815,"coordinates":{"latitude":"0.0263","longitude":"13.6049"},"timezone":{"offset":"+8:00","description":"Beijing, Perth, Singapore, Hong Kong"}}},{"name":{"title":"Mrs","first":"Franciska","last":"Blankendaal"},"location":{"street":{"number":4590,"name":"Kamgrasstraat"},"city":"Yde","state":"Flevoland","country":"Netherlands","postcode":"6329 SG","coordinates":{"latitude":"24.0812","longitude":"26.5890"},"timezone":{"offset":"-4:00","description":"Atlantic Time (Canada), Caracas, La Paz"}}},{"name":{"title":"Mr","first":"Aaron","last":"Tejeda"},"location":{"street":{"number":1522,"name":"Retorno Ceja"},"city":"Santa Catarina Yecahuitzotl","state":"Nuevo Leon","country":"Mexico","postcode":14197,"coordinates":{"latitude":"70.2276","longitude":"-121.2877"},"timezone":{"offset":"-10:00","description":"Hawaii"}}},{"name":{"title":"Mr","first":"Alcindo","last":"da Cruz"},"location":{"street":{"number":9290,"name":"Rua Pernambuco "},"city":"Itapevi","state":"Bahia","country":"Brazil","postcode":53331,"coordinates":{"latitude":"-11.2217","longitude":"-167.1472"},"timezone":{"offset":"+7:00","description":"Bangkok, Hanoi, Jakarta"}}},{"name":{"title":"Mrs","first":"Alice","last":"Smith"},"location":{"street":{"number":5159,"name":"Lake Terrace"},"city":"Gisborne","state":"Waikato","country":"New Zealand","postcode":14776,"coordinates":{"latitude":"-6.2011","longitude":"45.1324"},"timezone":{"offset":"-3:30","description":"Newfoundland"}}},{"name":{"title":"Mrs","first":"Jamie","last":"Rogers"},"location":{"street":{"number":6916,"name":"James St"},"city":"Norwalk","state":"Hawaii","country":"United States","postcode":48760,"coordinates":{"latitude":"58.5793","longitude":"157.9593"},"timezone":{"offset":"0:00","description":"Western Europe Time, London, Lisbon, Casablanca"}}},{"name":{"title":"Monsieur","first":"Denis","last":"Simon"},"location":{"street":{"number":7330,"name":"Avenue Jean-Jaurès"},"city":"Sarmenstorf","state":"Neuchâtel","country":"Switzerland","postcode":1049,"coordinates":{"latitude":"28.5509","longitude":"-47.3508"},"timezone":{"offset":"-9:00","description":"Alaska"}}},{"name":{"title":"Mr","first":"Ingmar","last":"Krogsrud"},"location":{"street":{"number":6563,"name":"Karl Andersens vei"},"city":"Konglungen","state":"Description","country":"Norway","postcode":"4296","coordinates":{"latitude":"79.3567","longitude":"-66.5172"},"timezone":{"offset":"+6:00","description":"Almaty, Dhaka, Colombo"}}},{"name":{"title":"Mr","first":"Brayden","last":"Arnold"},"location":{"street":{"number":7172,"name":"Hogan St"},"city":"Salem","state":"California","country":"United States","postcode":57849,"coordinates":{"latitude":"36.9484","longitude":"-147.6052"},"timezone":{"offset":"+10:00","description":"Eastern Australia, Guam, Vladivostok"}}},{"name":{"title":"Mr","first":"Nicklas","last":"Nielsen"},"location":{"street":{"number":2520,"name":"Valdemarsgade"},"city":"Ansager","state":"Syddanmark","country":"Denmark","postcode":32669,"coordinates":{"latitude":"43.7094","longitude":"106.0998"},"timezone":{"offset":"+6:00","description":"Almaty, Dhaka, Colombo"}}},{"name":{"title":"Mademoiselle","first":"Roxane","last":"Morin"},"location":{"street":{"number":938,"name":"Rue du Stade"},"city":"Schlatt-Haslen","state":"Schaffhausen","country":"Switzerland","postcode":3462,"coordinates":{"latitude":"-84.9286","longitude":"-86.2699"},"timezone":{"offset":"-3:00","description":"Brazil, Buenos Aires, Georgetown"}}},{"name":{"title":"Mr","first":"Timian","last":"Wathne"},"location":{"street":{"number":8210,"name":"Nordlitoppen"},"city":"Ottersbo","state":"Nordland","country":"Norway","postcode":"6620","coordinates":{"latitude":"-41.2833","longitude":"-131.0035"},"timezone":{"offset":"+8:00","description":"Beijing, Perth, Singapore, Hong Kong"}}},{"name":{"title":"Madame","first":"Monika","last":"Vidal"},"location":{"street":{"number":2441,"name":"Rue du Stade"},"city":"Cheiry","state":"Aargau","country":"Switzerland","postcode":2030,"coordinates":{"latitude":"-86.3543","longitude":"111.8992"},"timezone":{"offset":"+4:00","description":"Abu Dhabi, Muscat, Baku, Tbilisi"}}},{"name":{"title":"Ms","first":"Alice","last":"Grant"},"location":{"street":{"number":3533,"name":"Ormond Quay"},"city":"Ashbourne","state":"Carlow","country":"Ireland","postcode":57893,"coordinates":{"latitude":"4.8923","longitude":"8.1617"},"timezone":{"offset":"+3:30","description":"Tehran"}}},{"name":{"title":"Ms","first":"Mandy","last":"Ellis"},"location":{"street":{"number":3977,"name":"Main Street"},"city":"Bangor","state":"Borders","country":"United Kingdom","postcode":"X2 2ZF","coordinates":{"latitude":"-21.7312","longitude":"-45.0778"},"timezone":{"offset":"-3:30","description":"Newfoundland"}}},{"name":{"title":"Mr","first":"Kai","last":"Hildrum"},"location":{"street":{"number":3406,"name":"St. Olavs plass"},"city":"Røstlandet","state":"Oppland","country":"Norway","postcode":"5357","coordinates":{"latitude":"-21.6508","longitude":"-65.2097"},"timezone":{"offset":"+7:00","description":"Bangkok, Hanoi, Jakarta"}}},{"name":{"title":"Mr","first":"Verban","last":"Ciba"},"location":{"street":{"number":9161,"name":"Universitetska"},"city":"Kodima","state":"Rivnenska","country":"Ukraine","postcode":60007,"coordinates":{"latitude":"-57.9422","longitude":"-106.9466"},"timezone":{"offset":"+4:00","description":"Abu Dhabi, Muscat, Baku, Tbilisi"}}},{"name":{"title":"Mr","first":"Thomas","last":"Beck"},"location":{"street":{"number":6688,"name":"O'Connell Street"},"city":"Thurles","state":"Monaghan","country":"Ireland","postcode":89104,"coordinates":{"latitude":"86.0690","longitude":"-62.2160"},"timezone":{"offset":"+10:00","description":"Eastern Australia, Guam, Vladivostok"}}},{"name":{"title":"Mrs","first":"Buse","last":"Ekşioğlu"},"location":{"street":{"number":2021,"name":"Şehitler Cd"},"city":"Gaziantep","state":"Konya","country":"Turkey","postcode":98725,"coordinates":{"latitude":"69.6476","longitude":"70.7730"},"timezone":{"offset":"-2:00","description":"Mid-Atlantic"}}},{"name":{"title":"Mrs","first":"Carmen","last":"Lawrence"},"location":{"street":{"number":3290,"name":"Edwards Rd"},"city":"Scottsdale","state":"South Carolina","country":"United States","postcode":25004,"coordinates":{"latitude":"-46.8939","longitude":"-93.2798"},"timezone":{"offset":"0:00","description":"Western Europe Time, London, Lisbon, Casablanca"}}},{"name":{"title":"Ms","first":"Ege","last":"Eronat"},"location":{"street":{"number":8783,"name":"Şehitler Cd"},"city":"Bayburt","state":"Karaman","country":"Turkey","postcode":38217,"coordinates":{"latitude":"28.9120","longitude":"33.9502"},"timezone":{"offset":"-7:00","description":"Mountain Time (US & Canada)"}}},{"name":{"title":"Mrs","first":"Özsu","last":"Bademci"},"location":{"street":{"number":7027,"name":"Kushimoto Sk"},"city":"Aydın","state":"Sinop","country":"Turkey","postcode":78006,"coordinates":{"latitude":"19.2924","longitude":"30.3923"},"timezone":{"offset":"-2:00","description":"Mid-Atlantic"}}},{"name":{"title":"Miss","first":"Iva","last":"Damjanović"},"location":{"street":{"number":7201,"name":"Jovana Gojkovića"},"city":"Kladovo","state":"Pirot","country":"Serbia","postcode":65591,"coordinates":{"latitude":"-54.1551","longitude":"154.8562"},"timezone":{"offset":"-10:00","description":"Hawaii"}}},{"name":{"title":"Mr","first":"Alfred","last":"Engeland"},"location":{"street":{"number":9263,"name":"Amagerveien"},"city":"Lyefjell","state":"Nord-Trøndelag","country":"Norway","postcode":"8205","coordinates":{"latitude":"-22.3924","longitude":"-97.5568"},"timezone":{"offset":"+5:30","description":"Bombay, Calcutta, Madras, New Delhi"}}},{"name":{"title":"Mr","first":"Marius","last":"Jensen"},"location":{"street":{"number":3304,"name":"Gammelgårdsvej"},"city":"Argerskov","state":"Sjælland","country":"Denmark","postcode":53036,"coordinates":{"latitude":"70.5792","longitude":"128.5109"},"timezone":{"offset":"+5:30","description":"Bombay, Calcutta, Madras, New Delhi"}}},{"name":{"title":"Miss","first":"مهرسا","last":"نكو نظر"},"location":{"street":{"number":9799,"name":"شهید استاد حسن بنا"},"city":"تهران","state":"سمنان","country":"Iran","postcode":43728,"coordinates":{"latitude":"51.1675","longitude":"-57.1006"},"timezone":{"offset":"+11:00","description":"Magadan, Solomon Islands, New Caledonia"}}},{"name":{"title":"Miss","first":"یسنا","last":"کامروا"},"location":{"street":{"number":1249,"name":"استاد قریب"},"city":"گرگان","state":"آذربایجان غربی","country":"Iran","postcode":45462,"coordinates":{"latitude":"36.0699","longitude":"-86.2134"},"timezone":{"offset":"+9:30","description":"Adelaide, Darwin"}}},{"name":{"title":"Ms","first":"Lydia","last":"Webb"},"location":{"street":{"number":5162,"name":"Daisy Dr"},"city":"Albury","state":"Tasmania","country":"Australia","postcode":9553,"coordinates":{"latitude":"16.2622","longitude":"97.8928"},"timezone":{"offset":"+10:00","description":"Eastern Australia, Guam, Vladivostok"}}},{"name":{"title":"Ms","first":"Gail","last":"Ray"},"location":{"street":{"number":4675,"name":"N Stelling Rd"},"city":"Gilbert","state":"New Mexico","country":"United States","postcode":35621,"coordinates":{"latitude":"-70.9236","longitude":"94.7928"},"timezone":{"offset":"+9:30","description":"Adelaide, Darwin"}}},{"name":{"title":"Mr","first":"دانیال","last":"كامياران"},"location":{"street":{"number":2997,"name":"آیت‌الله سعیدی"},"city":"اهواز","state":"کرمان","country":"Iran","postcode":68834,"coordinates":{"latitude":"-7.4456","longitude":"-56.8542"},"timezone":{"offset":"+5:45","description":"Kathmandu"}}},{"name":{"title":"Mr","first":"Octavio","last":"Armas"},"location":{"street":{"number":5012,"name":"Avenida Riojas"},"city":"Chochola","state":"Sonora","country":"Mexico","postcode":72869,"coordinates":{"latitude":"62.2439","longitude":"-153.9450"},"timezone":{"offset":"+5:45","description":"Kathmandu"}}},{"name":{"title":"Mr","first":"Mohamed","last":"Sáez"},"location":{"street":{"number":387,"name":"Avenida de Andalucía"},"city":"Santiago de Compostela","state":"Cataluña","country":"Spain","postcode":73653,"coordinates":{"latitude":"69.3599","longitude":"150.5226"},"timezone":{"offset":"+6:00","description":"Almaty, Dhaka, Colombo"}}},{"name":{"title":"Miss","first":"Gabriele","last":"da Mota"},"location":{"street":{"number":5109,"name":"Rua da Saudade"},"city":"Itapetininga","state":"Sergipe","country":"Brazil","postcode":93470,"coordinates":{"latitude":"50.7127","longitude":"-55.3917"},"timezone":{"offset":"-11:00","description":"Midway Island, Samoa"}}},{"name":{"title":"Monsieur","first":"Luc","last":"Masson"},"location":{"street":{"number":5755,"name":"Rue Cyrus-Hugues"},"city":"Golaten","state":"Schwyz","country":"Switzerland","postcode":4320,"coordinates":{"latitude":"-47.8360","longitude":"116.3745"},"timezone":{"offset":"+11:00","description":"Magadan, Solomon Islands, New Caledonia"}}},{"name":{"title":"Miss","first":"Brooke","last":"Lee"},"location":{"street":{"number":4359,"name":"Manukau Road"},"city":"Greymouth","state":"Southland","country":"New Zealand","postcode":58669,"coordinates":{"latitude":"16.7299","longitude":"166.9858"},"timezone":{"offset":"-12:00","description":"Eniwetok, Kwajalein"}}},{"name":{"title":"Mr","first":"Višeslav","last":"Pantić"},"location":{"street":{"number":6346,"name":"Radoslava Radenkovića"},"city":"Pećinci","state":"Prizren","country":"Serbia","postcode":10047,"coordinates":{"latitude":"57.7806","longitude":"-158.4729"},"timezone":{"offset":"-12:00","description":"Eniwetok, Kwajalein"}}},{"name":{"title":"Ms","first":"Ece","last":"Akal"},"location":{"street":{"number":537,"name":"Atatürk Sk"},"city":"Sinop","state":"Antalya","country":"Turkey","postcode":74780,"coordinates":{"latitude":"-9.3400","longitude":"117.0893"},"timezone":{"offset":"-3:30","description":"Newfoundland"}}},{"name":{"title":"Mr","first":"Harrison","last":"Wang"},"location":{"street":{"number":7762,"name":"South Western Arterial"},"city":"Tauranga","state":"Hawke'S Bay","country":"New Zealand","postcode":74104,"coordinates":{"latitude":"-53.9490","longitude":"161.3003"},"timezone":{"offset":"-11:00","description":"Midway Island, Samoa"}}},{"name":{"title":"Mr","first":"Bhuv","last":"Bansal"},"location":{"street":{"number":3158,"name":"Tank Bund Rd"},"city":"Bharatpur","state":"Tamil Nadu","country":"India","postcode":53604,"coordinates":{"latitude":"1.0162","longitude":"91.1826"},"timezone":{"offset":"-3:30","description":"Newfoundland"}}},{"name":{"title":"Mr","first":"Topias","last":"Wirkkala"},"location":{"street":{"number":9626,"name":"Suvantokatu"},"city":"Seinäjoki","state":"Kymenlaakso","country":"Finland","postcode":63045,"coordinates":{"latitude":"16.3992","longitude":"-30.9258"},"timezone":{"offset":"-12:00","description":"Eniwetok, Kwajalein"}}},{"name":{"title":"Miss","first":"Eleonora","last":"Justad"},"location":{"street":{"number":1941,"name":"Bertramjordet"},"city":"Tangen","state":"Hedmark","country":"Norway","postcode":"7412","coordinates":{"latitude":"37.3302","longitude":"-73.5666"},"timezone":{"offset":"+5:00","description":"Ekaterinburg, Islamabad, Karachi, Tashkent"}}},{"name":{"title":"Mrs","first":"Aglaya","last":"Pedan"},"location":{"street":{"number":6661,"name":"Kurchatova"},"city":"Poltava","state":"Mikolayivska","country":"Ukraine","postcode":10172,"coordinates":{"latitude":"-39.3974","longitude":"-32.5770"},"timezone":{"offset":"-8:00","description":"Pacific Time (US & Canada)"}}},{"name":{"title":"Mr","first":"Gaël","last":"Menard"},"location":{"street":{"number":6275,"name":"Place de L'Église"},"city":"Montpellier","state":"Moselle","country":"France","postcode":66835,"coordinates":{"latitude":"-32.1447","longitude":"-163.4951"},"timezone":{"offset":"+5:30","description":"Bombay, Calcutta, Madras, New Delhi"}}},{"name":{"title":"Monsieur","first":"Renzo","last":"Schmitt"},"location":{"street":{"number":6692,"name":"Rue des Chartreux"},"city":"Meggen","state":"Nidwalden","country":"Switzerland","postcode":9815,"coordinates":{"latitude":"32.0817","longitude":"31.3750"},"timezone":{"offset":"+7:00","description":"Bangkok, Hanoi, Jakarta"}}},{"name":{"title":"Mr","first":"Camilo","last":"Salgado"},"location":{"street":{"number":2457,"name":"Retorno Sonora"},"city":"Valadeces","state":"Quintana Roo","country":"Mexico","postcode":25039,"coordinates":{"latitude":"7.9414","longitude":"-1.7346"},"timezone":{"offset":"+11:00","description":"Magadan, Solomon Islands, New Caledonia"}}},{"name":{"title":"Mrs","first":"Nadežda","last":"Adamović"},"location":{"street":{"number":8802,"name":"Janka Gagića"},"city":"Mionica","state":"Pirot","country":"Serbia","postcode":57781,"coordinates":{"latitude":"-3.3618","longitude":"-53.2205"},"timezone":{"offset":"-12:00","description":"Eniwetok, Kwajalein"}}},{"name":{"title":"Miss","first":"Amalie","last":"Jensen"},"location":{"street":{"number":5155,"name":"Svendborgvej"},"city":"Støvring ","state":"Nordjylland","country":"Denmark","postcode":49600,"coordinates":{"latitude":"55.1152","longitude":"16.5206"},"timezone":{"offset":"+3:00","description":"Baghdad, Riyadh, Moscow, St. Petersburg"}}},{"name":{"title":"Mr","first":"Shchastislav","last":"Bulatovich"},"location":{"street":{"number":6921,"name":"Pogrebskiy provulok"},"city":"Korec","state":"Kiyivska","country":"Ukraine","postcode":93048,"coordinates":{"latitude":"10.5426","longitude":"-81.5932"},"timezone":{"offset":"-3:00","description":"Brazil, Buenos Aires, Georgetown"}}},{"name":{"title":"Mr","first":"Oliver","last":"Indahl"},"location":{"street":{"number":5875,"name":"Sorgenfrigata"},"city":"Ulvik","state":"Nord-Trøndelag","country":"Norway","postcode":"9143","coordinates":{"latitude":"-9.4316","longitude":"98.1424"},"timezone":{"offset":"-12:00","description":"Eniwetok, Kwajalein"}}},{"name":{"title":"Mr","first":"Lester","last":"West"},"location":{"street":{"number":9958,"name":"Victoria Road"},"city":"Tuam","state":"Cavan","country":"Ireland","postcode":39557,"coordinates":{"latitude":"-33.1643","longitude":"48.6791"},"timezone":{"offset":"-4:00","description":"Atlantic Time (Canada), Caracas, La Paz"}}},{"name":{"title":"Mr","first":"Darren","last":"Graves"},"location":{"street":{"number":960,"name":"Samaritan Dr"},"city":"Las Cruces","state":"Kentucky","country":"United States","postcode":22122,"coordinates":{"latitude":"59.7813","longitude":"-30.5200"},"timezone":{"offset":"-8:00","description":"Pacific Time (US & Canada)"}}},{"name":{"title":"Mrs","first":"Mia","last":"Gauthier"},"location":{"street":{"number":5862,"name":"15th St"},"city":"Greenwood","state":"Prince Edward Island","country":"Canada","postcode":"O1X 9I3","coordinates":{"latitude":"8.3566","longitude":"-82.5014"},"timezone":{"offset":"-10:00","description":"Hawaii"}}},{"name":{"title":"Mr","first":"Ross","last":"Chambers"},"location":{"street":{"number":4142,"name":"Kingsway"},"city":"Westminster","state":"Northumberland","country":"United Kingdom","postcode":"H11 1UY","coordinates":{"latitude":"-76.5420","longitude":"-90.7019"},"timezone":{"offset":"+9:30","description":"Adelaide, Darwin"}}},{"name":{"title":"Ms","first":"Leila","last":"Sol"},"location":{"street":{"number":1124,"name":"Burgemeester Knappertlaan"},"city":"Maasvlakte Rotterdam","state":"Limburg","country":"Netherlands","postcode":"0657 WF","coordinates":{"latitude":"-13.2428","longitude":"100.7109"},"timezone":{"offset":"-5:00","description":"Eastern Time (US & Canada), Bogota, Lima"}}},{"name":{"title":"Mr","first":"Eetu","last":"Koivisto"},"location":{"street":{"number":5670,"name":"Tahmelantie"},"city":"Karjalohja","state":"Tavastia Proper","country":"Finland","postcode":25437,"coordinates":{"latitude":"67.6155","longitude":"-72.8752"},"timezone":{"offset":"+11:00","description":"Magadan, Solomon Islands, New Caledonia"}}},{"name":{"title":"Ms","first":"Puja","last":"Naalden"},"location":{"street":{"number":8050,"name":"De Tweeling"},"city":"Eenigenburg","state":"Groningen","country":"Netherlands","postcode":"6816 RY","coordinates":{"latitude":"-60.2661","longitude":"-12.9556"},"timezone":{"offset":"+7:00","description":"Bangkok, Hanoi, Jakarta"}}},{"name":{"title":"Mrs","first":"Emma","last":"White"},"location":{"street":{"number":1329,"name":"Highcliff Road"},"city":"Upper Hutt","state":"Tasman","country":"New Zealand","postcode":73585,"coordinates":{"latitude":"65.0039","longitude":"78.3136"},"timezone":{"offset":"-9:00","description":"Alaska"}}},{"name":{"title":"Mr","first":"Ümit","last":"Erginsoy"},"location":{"street":{"number":2231,"name":"Filistin Cd"},"city":"Diyarbakır","state":"Kilis","country":"Turkey","postcode":63673,"coordinates":{"latitude":"-54.0660","longitude":"139.8300"},"timezone":{"offset":"+5:00","description":"Ekaterinburg, Islamabad, Karachi, Tashkent"}}},{"name":{"title":"Mr","first":"Elko","last":"Sommer"},"location":{"street":{"number":4290,"name":"Burgemeester G. J. F. Tijdemanstraat"},"city":"Lewedorp","state":"Gelderland","country":"Netherlands","postcode":"6274 OV","coordinates":{"latitude":"74.0056","longitude":"-132.4633"},"timezone":{"offset":"+3:30","description":"Tehran"}}},{"name":{"title":"Mr","first":"Owen","last":"Mitchell"},"location":{"street":{"number":1278,"name":"Peel St"},"city":"Fountainbleu","state":"Manitoba","country":"Canada","postcode":"O8I 0S0","coordinates":{"latitude":"59.8393","longitude":"-27.3559"},"timezone":{"offset":"+9:00","description":"Tokyo, Seoul, Osaka, Sapporo, Yakutsk"}}},{"name":{"title":"Mrs","first":"Miriam","last":"Gamboa"},"location":{"street":{"number":9286,"name":"Andador Ulloa"},"city":"Tetecala","state":"San Luis Potosí","country":"Mexico","postcode":54333,"coordinates":{"latitude":"13.7000","longitude":"-76.9400"},"timezone":{"offset":"+9:00","description":"Tokyo, Seoul, Osaka, Sapporo, Yakutsk"}}},{"name":{"title":"Miss","first":"Oona","last":"Laakso"},"location":{"street":{"number":9908,"name":"Tehtaankatu"},"city":"Oripää","state":"Central Finland","country":"Finland","postcode":58444,"coordinates":{"latitude":"-60.0084","longitude":"144.0155"},"timezone":{"offset":"+4:30","description":"Kabul"}}},{"name":{"title":"Miss","first":"Juana","last":"Ortega"},"location":{"street":{"number":934,"name":"Calle Mota"},"city":"La Coruña","state":"Región de Murcia","country":"Spain","postcode":39172,"coordinates":{"latitude":"69.7290","longitude":"-76.2417"},"timezone":{"offset":"-11:00","description":"Midway Island, Samoa"}}},{"name":{"title":"Mr","first":"Virgínio","last":"Viana"},"location":{"street":{"number":8535,"name":"Rua Santa Maria "},"city":"Maricá","state":"Minas Gerais","country":"Brazil","postcode":65214,"coordinates":{"latitude":"-69.0184","longitude":"-30.9917"},"timezone":{"offset":"-9:00","description":"Alaska"}}},{"name":{"title":"Mademoiselle","first":"Maëlle","last":"Lemaire"},"location":{"street":{"number":8663,"name":"Place de L'Abbé-Georges-Hénocque"},"city":"Dinhard","state":"Genève","country":"Switzerland","postcode":3479,"coordinates":{"latitude":"7.6155","longitude":"-111.9081"},"timezone":{"offset":"-7:00","description":"Mountain Time (US & Canada)"}}},{"name":{"title":"Mr","first":"Marius","last":"Johansen"},"location":{"street":{"number":5287,"name":"Allegade"},"city":"Hornbæk","state":"Danmark","country":"Denmark","postcode":29908,"coordinates":{"latitude":"55.1940","longitude":"-152.9911"},"timezone":{"offset":"+4:30","description":"Kabul"}}},{"name":{"title":"Mr","first":"Evan","last":"Neal"},"location":{"street":{"number":4893,"name":"Lone Wolf Trail"},"city":"Warragul","state":"Western Australia","country":"Australia","postcode":4063,"coordinates":{"latitude":"-13.5693","longitude":"-55.3876"},"timezone":{"offset":"-4:00","description":"Atlantic Time (Canada), Caracas, La Paz"}}},{"name":{"title":"Mr","first":"Ezra","last":"Turner"},"location":{"street":{"number":512,"name":"Manners Street"},"city":"Auckland","state":"Gisborne","country":"New Zealand","postcode":25494,"coordinates":{"latitude":"-86.3292","longitude":"-170.9492"},"timezone":{"offset":"-7:00","description":"Mountain Time (US & Canada)"}}},{"name":{"title":"Mrs","first":"Cecilie","last":"Rasmussen"},"location":{"street":{"number":559,"name":"Fsn Karup"},"city":"Rødvig Stevns","state":"Nordjylland","country":"Denmark","postcode":38653,"coordinates":{"latitude":"-3.2913","longitude":"108.8329"},"timezone":{"offset":"+4:30","description":"Kabul"}}},{"name":{"title":"Mrs","first":"Delphine","last":"Smith"},"location":{"street":{"number":9106,"name":"Peel St"},"city":"Charlottetown","state":"Nunavut","country":"Canada","postcode":"D5T 1X2","coordinates":{"latitude":"49.3025","longitude":"-120.6910"},"timezone":{"offset":"-2:00","description":"Mid-Atlantic"}}},{"name":{"title":"Mrs","first":"Ellie","last":"Peterson"},"location":{"street":{"number":3689,"name":"Denny Street"},"city":"Nenagh","state":"Carlow","country":"Ireland","postcode":43726,"coordinates":{"latitude":"55.5261","longitude":"-131.5495"},"timezone":{"offset":"+8:00","description":"Beijing, Perth, Singapore, Hong Kong"}}},{"name":{"title":"Miss","first":"Angelina","last":"Vidić"},"location":{"street":{"number":2391,"name":"Dol"},"city":"Kraljevo","state":"Kosovska Mitrovica","country":"Serbia","postcode":36634,"coordinates":{"latitude":"-24.5309","longitude":"-29.0838"},"timezone":{"offset":"+9:00","description":"Tokyo, Seoul, Osaka, Sapporo, Yakutsk"}}},{"name":{"title":"Ms","first":"Kristiane","last":"Sievert"},"location":{"street":{"number":6159,"name":"Römerstraße"},"city":"Barnim","state":"Bayern","country":"Germany","postcode":15637,"coordinates":{"latitude":"55.6323","longitude":"-116.4371"},"timezone":{"offset":"+1:00","description":"Brussels, Copenhagen, Madrid, Paris"}}},{"name":{"title":"Miss","first":"Angela","last":"Öztürk"},"location":{"street":{"number":4539,"name":"Waldstraße"},"city":"Wachenheim an der Weinstraße","state":"Sachsen-Anhalt","country":"Germany","postcode":57003,"coordinates":{"latitude":"54.0002","longitude":"141.1058"},"timezone":{"offset":"-3:00","description":"Brazil, Buenos Aires, Georgetown"}}},{"name":{"title":"Miss","first":"Dora","last":"Walker"},"location":{"street":{"number":9999,"name":"Mockingbird Ln"},"city":"Ballarat","state":"Western Australia","country":"Australia","postcode":1843,"coordinates":{"latitude":"-37.3818","longitude":"37.8138"},"timezone":{"offset":"-2:00","description":"Mid-Atlantic"}}},{"name":{"title":"Mr","first":"Vujadin","last":"Nemanjić"},"location":{"street":{"number":4732,"name":"Visariona Pavlovića"},"city":"Preševo","state":"Kolubara","country":"Serbia","postcode":77905,"coordinates":{"latitude":"10.4455","longitude":"84.3883"},"timezone":{"offset":"+2:00","description":"Kaliningrad, South Africa"}}},{"name":{"title":"Mr","first":"Óliver","last":"Alcaraz"},"location":{"street":{"number":9228,"name":"Diagonal Reino Unido de Gran Bretaña e Irlanda del Norte"},"city":"Guerrero","state":"Guerrero","country":"Mexico","postcode":70540,"coordinates":{"latitude":"-43.4335","longitude":"55.9772"},"timezone":{"offset":"+11:00","description":"Magadan, Solomon Islands, New Caledonia"}}},{"name":{"title":"Ms","first":"Tatolyuba","last":"Luchanko"},"location":{"street":{"number":1309,"name":"Petropavlivskiy provulok"},"city":"Vovchansk","state":"Donecka","country":"Ukraine","postcode":50608,"coordinates":{"latitude":"-2.3255","longitude":"-60.7621"},"timezone":{"offset":"+11:00","description":"Magadan, Solomon Islands, New Caledonia"}}},{"name":{"title":"Ms","first":"Oya","last":"Bakırcıoğlu"},"location":{"street":{"number":8357,"name":"Tunalı Hilmi Cd"},"city":"Ankara","state":"Sakarya","country":"Turkey","postcode":63757,"coordinates":{"latitude":"-42.8323","longitude":"163.9194"},"timezone":{"offset":"+5:00","description":"Ekaterinburg, Islamabad, Karachi, Tashkent"}}},{"name":{"title":"Mr","first":"Reynaldo","last":"Parra"},"location":{"street":{"number":1355,"name":"Circunvalación Rodríquez"},"city":"Héroes de la Independencia","state":"Nayarit","country":"Mexico","postcode":24408,"coordinates":{"latitude":"83.1765","longitude":"93.2081"},"timezone":{"offset":"+7:00","description":"Bangkok, Hanoi, Jakarta"}}},{"name":{"title":"Mr","first":"Kåre","last":"Frøshaug"},"location":{"street":{"number":1417,"name":"Kronveien"},"city":"Talvik","state":"Bergen","country":"Norway","postcode":"6717","coordinates":{"latitude":"38.2449","longitude":"-1.0304"},"timezone":{"offset":"+3:00","description":"Baghdad, Riyadh, Moscow, St. Petersburg"}}},{"name":{"title":"Miss","first":"Victoire","last":"Perrin"},"location":{"street":{"number":602,"name":"Rue Paul-Duvivier"},"city":"Besançon","state":"Aveyron","country":"France","postcode":76238,"coordinates":{"latitude":"45.6469","longitude":"-175.5517"},"timezone":{"offset":"+9:30","description":"Adelaide, Darwin"}}},{"name":{"title":"Miss","first":"Chloe","last":"Holmes"},"location":{"street":{"number":1515,"name":"Photinia Ave"},"city":"Irvine","state":"California","country":"United States","postcode":83524,"coordinates":{"latitude":"-76.2649","longitude":"42.8753"},"timezone":{"offset":"+6:00","description":"Almaty, Dhaka, Colombo"}}},{"name":{"title":"Mr","first":"Bertram","last":"Jensen"},"location":{"street":{"number":2643,"name":"Østerbrogade"},"city":"Kvistgaard","state":"Midtjylland","country":"Denmark","postcode":38376,"coordinates":{"latitude":"-82.7472","longitude":"-46.3148"},"timezone":{"offset":"+6:00","description":"Almaty, Dhaka, Colombo"}}},{"name":{"title":"Mr","first":"Alexander","last":"Montgomery"},"location":{"street":{"number":5193,"name":"Windsor Road"},"city":"Wolverhampton","state":"Durham","country":"United Kingdom","postcode":"N6 0GA","coordinates":{"latitude":"31.6331","longitude":"-56.8081"},"timezone":{"offset":"+6:00","description":"Almaty, Dhaka, Colombo"}}},{"name":{"title":"Mr","first":"Anton","last":"Ramo"},"location":{"street":{"number":7968,"name":"Tehtaankatu"},"city":"Oulunsalo","state":"Southern Ostrobothnia","country":"Finland","postcode":48280,"coordinates":{"latitude":"87.7832","longitude":"106.2401"},"timezone":{"offset":"+11:00","description":"Magadan, Solomon Islands, New Caledonia"}}},{"name":{"title":"Mr","first":"Alfonso","last":"Diez"},"location":{"street":{"number":5637,"name":"Calle de Alcalá"},"city":"Torrejón de Ardoz","state":"Comunidad de Madrid","country":"Spain","postcode":74358,"coordinates":{"latitude":"54.5421","longitude":"-19.0146"},"timezone":{"offset":"-8:00","description":"Pacific Time (US & Canada)"}}},{"name":{"title":"Miss","first":"Laura","last":"Vidal"},"location":{"street":{"number":7322,"name":"Calle de Arturo Soria"},"city":"Valencia","state":"Ceuta","country":"Spain","postcode":17145,"coordinates":{"latitude":"27.3834","longitude":"-58.9767"},"timezone":{"offset":"+8:00","description":"Beijing, Perth, Singapore, Hong Kong"}}},{"name":{"title":"Mr","first":"Guillaume","last":"Leclerc"},"location":{"street":{"number":4689,"name":"Rue de L'Abbé-Roger-Derry"},"city":"Perpignan","state":"Hérault","country":"France","postcode":88582,"coordinates":{"latitude":"-25.4030","longitude":"-105.4814"},"timezone":{"offset":"-1:00","description":"Azores, Cape Verde Islands"}}},{"name":{"title":"Mr","first":"Tomas","last":"Fuentes"},"location":{"street":{"number":1044,"name":"Avenida de Andalucía"},"city":"Barcelona","state":"Castilla la Mancha","country":"Spain","postcode":70205,"coordinates":{"latitude":"-72.5962","longitude":"42.9887"},"timezone":{"offset":"+7:00","description":"Bangkok, Hanoi, Jakarta"}}},{"name":{"title":"Mrs","first":"Ceyhan","last":"Erginsoy"},"location":{"street":{"number":9015,"name":"Kushimoto Sk"},"city":"Bartın","state":"Kırıkkale","country":"Turkey","postcode":94550,"coordinates":{"latitude":"-28.1793","longitude":"147.7915"},"timezone":{"offset":"+11:00","description":"Magadan, Solomon Islands, New Caledonia"}}},{"name":{"title":"Mr","first":"Logan","last":"French"},"location":{"street":{"number":282,"name":"Main St"},"city":"Inverness","state":"Newfoundland and Labrador","country":"Canada","postcode":"B3P 7I3","coordinates":{"latitude":"11.1935","longitude":"157.0213"},"timezone":{"offset":"-10:00","description":"Hawaii"}}},{"name":{"title":"Mr","first":"Albert","last":"Poulsen"},"location":{"street":{"number":168,"name":"Julsøvej"},"city":"Beder","state":"Nordjylland","country":"Denmark","postcode":30165,"coordinates":{"latitude":"84.5357","longitude":"99.0679"},"timezone":{"offset":"+8:00","description":"Beijing, Perth, Singapore, Hong Kong"}}},{"name":{"title":"Miss","first":"Gabrielle","last":"Robert"},"location":{"street":{"number":930,"name":"Rue Duguesclin"},"city":"Mulhouse","state":"Jura","country":"France","postcode":23139,"coordinates":{"latitude":"-49.8657","longitude":"-17.1900"},"timezone":{"offset":"-9:00","description":"Alaska"}}},{"name":{"title":"Mr","first":"Roberto","last":"Páez"},"location":{"street":{"number":8652,"name":"Boulevard Lesotho"},"city":"Tultepec","state":"Nayarit","country":"Mexico","postcode":46156,"coordinates":{"latitude":"20.8950","longitude":"119.6120"},"timezone":{"offset":"+8:00","description":"Beijing, Perth, Singapore, Hong Kong"}}},{"name":{"title":"Mr","first":"Israel","last":"Longoria"},"location":{"street":{"number":1001,"name":"Peatonal Garza"},"city":"San Miguel Xoxtla","state":"Chiapas","country":"Mexico","postcode":97900,"coordinates":{"latitude":"-54.5538","longitude":"168.6904"},"timezone":{"offset":"-11:00","description":"Midway Island, Samoa"}}},{"name":{"title":"Mrs","first":"Kamilla","last":"Hovland"},"location":{"street":{"number":729,"name":"Sigrid Undsets vei"},"city":"Åndalsnes","state":"Sør-Trøndelag","country":"Norway","postcode":"9175","coordinates":{"latitude":"53.9435","longitude":"-163.1360"},"timezone":{"offset":"+3:30","description":"Tehran"}}},{"name":{"title":"Mrs","first":"Nevaeh","last":"Franklin"},"location":{"street":{"number":735,"name":"Nowlin Rd"},"city":"Beaumont","state":"Rhode Island","country":"United States","postcode":71449,"coordinates":{"latitude":"30.7683","longitude":"-9.7036"},"timezone":{"offset":"-1:00","description":"Azores, Cape Verde Islands"}}},{"name":{"title":"Ms","first":"Bianca","last":"Casares"},"location":{"street":{"number":7225,"name":"Periférico Norte Rendón"},"city":"Vicente Camalote","state":"Sonora","country":"Mexico","postcode":16827,"coordinates":{"latitude":"-35.8776","longitude":"-159.4128"},"timezone":{"offset":"+2:00","description":"Kaliningrad, South Africa"}}},{"name":{"title":"Mr","first":"Benjamin","last":"Pedersen"},"location":{"street":{"number":4813,"name":"Fasanvej"},"city":"Beder","state":"Sjælland","country":"Denmark","postcode":24069,"coordinates":{"latitude":"-74.5094","longitude":"81.6542"},"timezone":{"offset":"+9:00","description":"Tokyo, Seoul, Osaka, Sapporo, Yakutsk"}}},{"name":{"title":"Mr","first":"Eduardo","last":"Nelson"},"location":{"street":{"number":7207,"name":"Central St"},"city":"Adelaide","state":"Queensland","country":"Australia","postcode":3110,"coordinates":{"latitude":"23.3262","longitude":"-39.5028"},"timezone":{"offset":"+5:00","description":"Ekaterinburg, Islamabad, Karachi, Tashkent"}}},{"name":{"title":"Miss","first":"Pippa","last":"Moore"},"location":{"street":{"number":516,"name":"Mt Wellington Highway"},"city":"Blenheim","state":"Gisborne","country":"New Zealand","postcode":46477,"coordinates":{"latitude":"-6.3002","longitude":"-51.5890"},"timezone":{"offset":"+7:00","description":"Bangkok, Hanoi, Jakarta"}}},{"name":{"title":"Mrs","first":"Snežana","last":"Stevanović"},"location":{"street":{"number":3655,"name":"Kedrova"},"city":"Vrnjačka Banja","state":"Peć","country":"Serbia","postcode":43972,"coordinates":{"latitude":"0.8758","longitude":"-28.5675"},"timezone":{"offset":"+3:30","description":"Tehran"}}},{"name":{"title":"Miss","first":"Luisa","last":"Santana"},"location":{"street":{"number":8155,"name":"Avenida de Salamanca"},"city":"La Coruña","state":"Andalucía","country":"Spain","postcode":65777,"coordinates":{"latitude":"-62.2495","longitude":"51.7406"},"timezone":{"offset":"+1:00","description":"Brussels, Copenhagen, Madrid, Paris"}}},{"name":{"title":"Mrs","first":"آیلین","last":"کوتی"},"location":{"street":{"number":391,"name":"استاد قریب"},"city":"زنجان","state":"البرز","country":"Iran","postcode":76319,"coordinates":{"latitude":"-45.8308","longitude":"-99.3128"},"timezone":{"offset":"-8:00","description":"Pacific Time (US & Canada)"}}},{"name":{"title":"Mr","first":"Antonin","last":"Lemaire"},"location":{"street":{"number":5129,"name":"Rue du Stade"},"city":"Lille","state":"Loir-et-Cher","country":"France","postcode":63274,"coordinates":{"latitude":"51.7474","longitude":"20.2165"},"timezone":{"offset":"+10:00","description":"Eastern Australia, Guam, Vladivostok"}}},{"name":{"title":"Madame","first":"Claude","last":"Moulin"},"location":{"street":{"number":2940,"name":"Rue Pasteur"},"city":"Grächen","state":"Schwyz","country":"Switzerland","postcode":7118,"coordinates":{"latitude":"-74.1875","longitude":"-134.2725"},"timezone":{"offset":"+8:00","description":"Beijing, Perth, Singapore, Hong Kong"}}},{"name":{"title":"Miss","first":"Gabriela","last":"Lucero"},"location":{"street":{"number":8164,"name":"Corredor Vietman"},"city":"Mazatán","state":"Tamaulipas","country":"Mexico","postcode":86822,"coordinates":{"latitude":"-24.8747","longitude":"-44.1567"},"timezone":{"offset":"-1:00","description":"Azores, Cape Verde Islands"}}},{"name":{"title":"Miss","first":"Lena","last":"Lima"},"location":{"street":{"number":796,"name":"Rua Vinte E Dois "},"city":"Bagé","state":"Roraima","country":"Brazil","postcode":38975,"coordinates":{"latitude":"51.1997","longitude":"56.2708"},"timezone":{"offset":"-10:00","description":"Hawaii"}}},{"name":{"title":"Mr","first":"Svitolik","last":"Filipchuk"},"location":{"street":{"number":624,"name":"Novodarnicka"},"city":"Ohtirka","state":"Donecka","country":"Ukraine","postcode":29481,"coordinates":{"latitude":"-45.3427","longitude":"-158.2442"},"timezone":{"offset":"-8:00","description":"Pacific Time (US & Canada)"}}},{"name":{"title":"Ms","first":"Florence","last":"Bailey"},"location":{"street":{"number":4464,"name":"Park Road"},"city":"Westminster","state":"County Down","country":"United Kingdom","postcode":"W6U 2NW","coordinates":{"latitude":"-4.4392","longitude":"-108.0783"},"timezone":{"offset":"+5:00","description":"Ekaterinburg, Islamabad, Karachi, Tashkent"}}},{"name":{"title":"Mr","first":"Krish","last":"Fernandes"},"location":{"street":{"number":15,"name":"Pali Hill"},"city":"Mango","state":"Tamil Nadu","country":"India","postcode":46112,"coordinates":{"latitude":"-8.6552","longitude":"-121.9702"},"timezone":{"offset":"+4:30","description":"Kabul"}}},{"name":{"title":"Mr","first":"Agustín","last":"Alonso"},"location":{"street":{"number":7519,"name":"Calle de Arturo Soria"},"city":"Gandía","state":"Comunidad de Madrid","country":"Spain","postcode":81576,"coordinates":{"latitude":"-31.9967","longitude":"-56.3040"},"timezone":{"offset":"+6:00","description":"Almaty, Dhaka, Colombo"}}},{"name":{"title":"Miss","first":"Renata","last":"Gordiienko"},"location":{"street":{"number":633,"name":"Priyazna"},"city":"Kurahove","state":"Lvivska","country":"Ukraine","postcode":79186,"coordinates":{"latitude":"-86.5905","longitude":"-150.8207"},"timezone":{"offset":"-11:00","description":"Midway Island, Samoa"}}},{"name":{"title":"Mr","first":"Chris","last":"Butler"},"location":{"street":{"number":1669,"name":"Westheimer Rd"},"city":"Tweed","state":"Northern Territory","country":"Australia","postcode":5080,"coordinates":{"latitude":"41.4575","longitude":"42.0197"},"timezone":{"offset":"-1:00","description":"Azores, Cape Verde Islands"}}},{"name":{"title":"Mr","first":"Bill","last":"Carlson"},"location":{"street":{"number":2185,"name":"Wheeler Ridge Dr"},"city":"Bridgeport","state":"West Virginia","country":"United States","postcode":66936,"coordinates":{"latitude":"58.3883","longitude":"-117.0480"},"timezone":{"offset":"+5:45","description":"Kathmandu"}}},{"name":{"title":"Mr","first":"Arnaud","last":"Novak"},"location":{"street":{"number":3695,"name":"Pine Rd"},"city":"Windsor","state":"Nova Scotia","country":"Canada","postcode":"P9D 1F2","coordinates":{"latitude":"-18.4759","longitude":"8.3494"},"timezone":{"offset":"-1:00","description":"Azores, Cape Verde Islands"}}},{"name":{"title":"Mr","first":"Charles","last":"Taylor"},"location":{"street":{"number":9185,"name":"Wilson Road"},"city":"Rotorua","state":"Taranaki","country":"New Zealand","postcode":77136,"coordinates":{"latitude":"13.2027","longitude":"103.1558"},"timezone":{"offset":"-3:30","description":"Newfoundland"}}},{"name":{"title":"Mr","first":"Ray","last":"Little"},"location":{"street":{"number":7456,"name":"York Road"},"city":"Truro","state":"Highlands and Islands","country":"United Kingdom","postcode":"I86 6XU","coordinates":{"latitude":"46.4004","longitude":"-61.4339"},"timezone":{"offset":"-1:00","description":"Azores, Cape Verde Islands"}}},{"name":{"title":"Ms","first":"Engeltje","last":"Van Hoof"},"location":{"street":{"number":167,"name":"De Muddegezaai"},"city":"Opsterland","state":"Friesland","country":"Netherlands","postcode":"0784 AY","coordinates":{"latitude":"-47.9023","longitude":"177.8174"},"timezone":{"offset":"-2:00","description":"Mid-Atlantic"}}},{"name":{"title":"Ms","first":"Abigail","last":"Côté"},"location":{"street":{"number":4332,"name":"Oak St"},"city":"Delta","state":"Saskatchewan","country":"Canada","postcode":"U7P 8V6","coordinates":{"latitude":"-79.3374","longitude":"-52.0390"},"timezone":{"offset":"-6:00","description":"Central Time (US & Canada), Mexico City"}}},{"name":{"title":"Ms","first":"Laurie","last":"Wong"},"location":{"street":{"number":8023,"name":"West Ave"},"city":"Cartwright","state":"Ontario","country":"Canada","postcode":"N9V 2A8","coordinates":{"latitude":"49.9255","longitude":"-91.8081"},"timezone":{"offset":"-3:00","description":"Brazil, Buenos Aires, Georgetown"}}},{"name":{"title":"Miss","first":"Leslie","last":"Fuller"},"location":{"street":{"number":4717,"name":"First Street"},"city":"Cedar Rapids","state":"California","country":"United States","postcode":80879,"coordinates":{"latitude":"-75.8819","longitude":"-47.3058"},"timezone":{"offset":"+6:00","description":"Almaty, Dhaka, Colombo"}}},{"name":{"title":"Mrs","first":"Milagros","last":"Medina"},"location":{"street":{"number":8197,"name":"Calle de Téllez"},"city":"Madrid","state":"Cantabria","country":"Spain","postcode":52384,"coordinates":{"latitude":"-23.5215","longitude":"-107.6908"},"timezone":{"offset":"+9:30","description":"Adelaide, Darwin"}}},{"name":{"title":"Ms","first":"Vicky","last":"Hernandez"},"location":{"street":{"number":6004,"name":"Windsor Road"},"city":"Stoke-on-Trent","state":"Cleveland","country":"United Kingdom","postcode":"SL1S 4JU","coordinates":{"latitude":"-73.6506","longitude":"134.8548"},"timezone":{"offset":"-1:00","description":"Azores, Cape Verde Islands"}}},{"name":{"title":"Mr","first":"Leo","last":"Marttila"},"location":{"street":{"number":5007,"name":"Rautatienkatu"},"city":"Kuhmo","state":"Central Finland","country":"Finland","postcode":98136,"coordinates":{"latitude":"-84.6278","longitude":"148.1626"},"timezone":{"offset":"+10:00","description":"Eastern Australia, Guam, Vladivostok"}}},{"name":{"title":"Mrs","first":"Klavdiya","last":"Lazaruk"},"location":{"street":{"number":7658,"name":"Golosiyivska ploshcha"},"city":"Kodima","state":"Hmelnicka","country":"Ukraine","postcode":80967,"coordinates":{"latitude":"-77.9425","longitude":"-29.3263"},"timezone":{"offset":"-5:00","description":"Eastern Time (US & Canada), Bogota, Lima"}}},{"name":{"title":"Mrs","first":"Ceylan","last":"Abanuz"},"location":{"street":{"number":7080,"name":"Doktorlar Cd"},"city":"Muğla","state":"Tunceli","country":"Turkey","postcode":50529,"coordinates":{"latitude":"68.0986","longitude":"-47.7288"},"timezone":{"offset":"+7:00","description":"Bangkok, Hanoi, Jakarta"}}},{"name":{"title":"Mr","first":"Torvald","last":"Gylland"},"location":{"street":{"number":4482,"name":"Trimveien"},"city":"Haugland","state":"Vestfold","country":"Norway","postcode":"0853","coordinates":{"latitude":"29.7871","longitude":"146.1823"},"timezone":{"offset":"+7:00","description":"Bangkok, Hanoi, Jakarta"}}},{"name":{"title":"Ms","first":"Abbey","last":"Graham"},"location":{"street":{"number":7268,"name":"York Road"},"city":"Carlow","state":"Kerry","country":"Ireland","postcode":60419,"coordinates":{"latitude":"77.3256","longitude":"134.4632"},"timezone":{"offset":"+9:00","description":"Tokyo, Seoul, Osaka, Sapporo, Yakutsk"}}},{"name":{"title":"Mr","first":"Odinec","last":"Kulish"},"location":{"street":{"number":9172,"name":"Provulok Samokisha"},"city":"Dzhankoy","state":"Kiyivska","country":"Ukraine","postcode":61986,"coordinates":{"latitude":"19.5686","longitude":"162.9329"},"timezone":{"offset":"-5:00","description":"Eastern Time (US & Canada), Bogota, Lima"}}},{"name":{"title":"Mr","first":"Mustafa","last":"Akal"},"location":{"street":{"number":2046,"name":"Anafartalar Cd"},"city":"Giresun","state":"Bayburt","country":"Turkey","postcode":64893,"coordinates":{"latitude":"18.1009","longitude":"62.5258"},"timezone":{"offset":"+3:30","description":"Tehran"}}},{"name":{"title":"Ms","first":"Karen","last":"Cox"},"location":{"street":{"number":2580,"name":"Main Street"},"city":"Armagh","state":"Nottinghamshire","country":"United Kingdom","postcode":"K8C 5UX","coordinates":{"latitude":"22.7882","longitude":"128.3888"},"timezone":{"offset":"-9:00","description":"Alaska"}}},{"name":{"title":"Mrs","first":"Norah","last":"Laurent"},"location":{"street":{"number":8258,"name":"Rue des Cuirassiers"},"city":"Avignon","state":"Doubs","country":"France","postcode":52749,"coordinates":{"latitude":"-73.3905","longitude":"121.1550"},"timezone":{"offset":"0:00","description":"Western Europe Time, London, Lisbon, Casablanca"}}},{"name":{"title":"Ms","first":"Edeltraud","last":"Rolf"},"location":{"street":{"number":1530,"name":"Bergstraße"},"city":"Rodgau","state":"Niedersachsen","country":"Germany","postcode":62201,"coordinates":{"latitude":"86.3928","longitude":"-37.6959"},"timezone":{"offset":"+3:00","description":"Baghdad, Riyadh, Moscow, St. Petersburg"}}},{"name":{"title":"Mr","first":"Akshay","last":"Bhardwaj"},"location":{"street":{"number":8765,"name":"Tilak Marg"},"city":"Jammu","state":"Lakshadweep","country":"India","postcode":74151,"coordinates":{"latitude":"88.8755","longitude":"-62.7583"},"timezone":{"offset":"+8:00","description":"Beijing, Perth, Singapore, Hong Kong"}}},{"name":{"title":"Mr","first":"Petar","last":"Smiljanić"},"location":{"street":{"number":2278,"name":"Milorada ćirića"},"city":"Odžaci","state":"Braničevo","country":"Serbia","postcode":46345,"coordinates":{"latitude":"1.5450","longitude":"47.9924"},"timezone":{"offset":"+8:00","description":"Beijing, Perth, Singapore, Hong Kong"}}},{"name":{"title":"Mrs","first":"Maddison","last":"Smith"},"location":{"street":{"number":3667,"name":"Henry Street"},"city":"Ardee","state":"Louth","country":"Ireland","postcode":72971,"coordinates":{"latitude":"74.8939","longitude":"-107.1168"},"timezone":{"offset":"+11:00","description":"Magadan, Solomon Islands, New Caledonia"}}},{"name":{"title":"Mr","first":"Volkan","last":"Özberk"},"location":{"street":{"number":1759,"name":"Kushimoto Sk"},"city":"Amasya","state":"Ağrı","country":"Turkey","postcode":47246,"coordinates":{"latitude":"67.7722","longitude":"-11.2108"},"timezone":{"offset":"+4:00","description":"Abu Dhabi, Muscat, Baku, Tbilisi"}}},{"name":{"title":"Mr","first":"Hansjürgen","last":"Möhle"},"location":{"street":{"number":5026,"name":"Am Bahnhof"},"city":"Sankt Goarshausen","state":"Nordrhein-Westfalen","country":"Germany","postcode":47658,"coordinates":{"latitude":"36.3150","longitude":"-21.7100"},"timezone":{"offset":"-1:00","description":"Azores, Cape Verde Islands"}}},{"name":{"title":"Ms","first":"Magdalena","last":"Navarrete"},"location":{"street":{"number":6609,"name":"Diagonal República Centroafricana"},"city":"Xochipala","state":"Michoacan","country":"Mexico","postcode":33657,"coordinates":{"latitude":"-18.8248","longitude":"96.0268"},"timezone":{"offset":"-12:00","description":"Eniwetok, Kwajalein"}}},{"name":{"title":"Mr","first":"Elmer","last":"Cox"},"location":{"street":{"number":8963,"name":"The Drive"},"city":"Newport","state":"West Midlands","country":"United Kingdom","postcode":"HJ6 0TE","coordinates":{"latitude":"45.9174","longitude":"0.4350"},"timezone":{"offset":"+4:00","description":"Abu Dhabi, Muscat, Baku, Tbilisi"}}},{"name":{"title":"Mr","first":"Rolando","last":"Pizarro"},"location":{"street":{"number":2734,"name":"Corredor Rumania"},"city":"Vicente Guerrero","state":"Chiapas","country":"Mexico","postcode":66123,"coordinates":{"latitude":"56.3171","longitude":"-43.1060"},"timezone":{"offset":"+10:00","description":"Eastern Australia, Guam, Vladivostok"}}},{"name":{"title":"Mr","first":"Vujadin","last":"Spasić"},"location":{"street":{"number":3536,"name":"Violet Frejzer"},"city":"Golubac","state":"Kosovo","country":"Serbia","postcode":63757,"coordinates":{"latitude":"-57.1007","longitude":"76.5946"},"timezone":{"offset":"+9:30","description":"Adelaide, Darwin"}}},{"name":{"title":"Mr","first":"Thomas","last":"Ginnish"},"location":{"street":{"number":9972,"name":"Coastal Highway"},"city":"Victoria","state":"Alberta","country":"Canada","postcode":"B2Z 9D0","coordinates":{"latitude":"-0.8176","longitude":"-156.3386"},"timezone":{"offset":"-12:00","description":"Eniwetok, Kwajalein"}}},{"name":{"title":"Ms","first":"Avery","last":"Fortin"},"location":{"street":{"number":3835,"name":"Balmoral St"},"city":"Stratford","state":"Alberta","country":"Canada","postcode":"C6G 1A0","coordinates":{"latitude":"78.4454","longitude":"136.6013"},"timezone":{"offset":"-11:00","description":"Midway Island, Samoa"}}},{"name":{"title":"Mrs","first":"Talytha","last":"Silva"},"location":{"street":{"number":1626,"name":"Rua Dezesseis de Maio"},"city":"Salvador","state":"Minas Gerais","country":"Brazil","postcode":16404,"coordinates":{"latitude":"22.2673","longitude":"51.6705"},"timezone":{"offset":"+4:30","description":"Kabul"}}},{"name":{"title":"Mrs","first":"Margarita","last":"Karnaushenko"},"location":{"street":{"number":9761,"name":"Novopishchaniy provulok"},"city":"Sambir","state":"Lvivska","country":"Ukraine","postcode":76349,"coordinates":{"latitude":"16.2393","longitude":"140.0693"},"timezone":{"offset":"+3:00","description":"Baghdad, Riyadh, Moscow, St. Petersburg"}}},{"name":{"title":"Mrs","first":"Berdina","last":"Roodnat"},"location":{"street":{"number":9816,"name":"Boeienstraat"},"city":"Morra","state":"Gelderland","country":"Netherlands","postcode":"7328 KN","coordinates":{"latitude":"14.0362","longitude":"85.1408"},"timezone":{"offset":"-11:00","description":"Midway Island, Samoa"}}},{"name":{"title":"Mr","first":"Mitchell","last":"Lawson"},"location":{"street":{"number":7242,"name":"Timber Wolf Trail"},"city":"Coffs Harbour","state":"Northern Territory","country":"Australia","postcode":8557,"coordinates":{"latitude":"-89.9042","longitude":"-27.6439"},"timezone":{"offset":"-11:00","description":"Midway Island, Samoa"}}},{"name":{"title":"Mr","first":"Darsh","last":"Jain"},"location":{"street":{"number":3058,"name":"Vellala St"},"city":"Bhavnagar","state":"Meghalaya","country":"India","postcode":60865,"coordinates":{"latitude":"-5.6022","longitude":"143.6693"},"timezone":{"offset":"+5:30","description":"Bombay, Calcutta, Madras, New Delhi"}}},{"name":{"title":"Mr","first":"Miro","last":"Luoma"},"location":{"street":{"number":49,"name":"Pispalan Valtatie"},"city":"Sastamala","state":"Tavastia Proper","country":"Finland","postcode":38680,"coordinates":{"latitude":"24.9812","longitude":"163.6484"},"timezone":{"offset":"-8:00","description":"Pacific Time (US & Canada)"}}},{"name":{"title":"Mrs","first":"Magda","last":"Lauterbach"},"location":{"street":{"number":4846,"name":"Kirchstraße"},"city":"Bad Lauchstädt","state":"Saarland","country":"Germany","postcode":18230,"coordinates":{"latitude":"-19.7406","longitude":"84.3364"},"timezone":{"offset":"+9:30","description":"Adelaide, Darwin"}}},{"name":{"title":"Mr","first":"Mathias","last":"Christensen"},"location":{"street":{"number":3357,"name":"Åbakkevej"},"city":"Saltum","state":"Midtjylland","country":"Denmark","postcode":64774,"coordinates":{"latitude":"-67.8656","longitude":"21.3937"},"timezone":{"offset":"-3:00","description":"Brazil, Buenos Aires, Georgetown"}}},{"name":{"title":"Miss","first":"Aino","last":"Salonen"},"location":{"street":{"number":1953,"name":"Visiokatu"},"city":"Inari","state":"Finland Proper","country":"Finland","postcode":80330,"coordinates":{"latitude":"89.0743","longitude":"-135.7532"},"timezone":{"offset":"+3:30","description":"Tehran"}}},{"name":{"title":"Mr","first":"Väinö","last":"Rinne"},"location":{"street":{"number":5415,"name":"Nordenskiöldinkatu"},"city":"Laihia","state":"Päijät-Häme","country":"Finland","postcode":61846,"coordinates":{"latitude":"-43.8946","longitude":"32.1836"},"timezone":{"offset":"-8:00","description":"Pacific Time (US & Canada)"}}},{"name":{"title":"Miss","first":"Nicole","last":"Jordan"},"location":{"street":{"number":1435,"name":"Cherry St"},"city":"Devonport","state":"Tasmania","country":"Australia","postcode":9753,"coordinates":{"latitude":"60.1635","longitude":"-94.7588"},"timezone":{"offset":"-4:00","description":"Atlantic Time (Canada), Caracas, La Paz"}}},{"name":{"title":"Miss","first":"Perla","last":"Guevara"},"location":{"street":{"number":7910,"name":"Circunvalación Bhután"},"city":"Santiago Tezontlale","state":"Aguascalientes","country":"Mexico","postcode":42423,"coordinates":{"latitude":"-38.7338","longitude":"65.2710"},"timezone":{"offset":"+9:00","description":"Tokyo, Seoul, Osaka, Sapporo, Yakutsk"}}},{"name":{"title":"Ms","first":"Lily","last":"Brar"},"location":{"street":{"number":3414,"name":"Lake of Bays Road"},"city":"Vanier","state":"Prince Edward Island","country":"Canada","postcode":"E7E 6A1","coordinates":{"latitude":"-74.1095","longitude":"-17.1305"},"timezone":{"offset":"-1:00","description":"Azores, Cape Verde Islands"}}},{"name":{"title":"Ms","first":"Ege","last":"Dalkıran"},"location":{"street":{"number":62,"name":"Kushimoto Sk"},"city":"Kırklareli","state":"Niğde","country":"Turkey","postcode":17140,"coordinates":{"latitude":"-42.8286","longitude":"107.1959"},"timezone":{"offset":"+3:30","description":"Tehran"}}},{"name":{"title":"Mr","first":"Herman","last":"Carroll"},"location":{"street":{"number":515,"name":"Ormond Quay"},"city":"Monaghan","state":"Dublin City","country":"Ireland","postcode":31359,"coordinates":{"latitude":"35.7620","longitude":"15.5539"},"timezone":{"offset":"+5:45","description":"Kathmandu"}}},{"name":{"title":"Mrs","first":"Avery","last":"Pearson"},"location":{"street":{"number":9973,"name":"Spring Hill Rd"},"city":"Nampa","state":"California","country":"United States","postcode":81060,"coordinates":{"latitude":"42.8110","longitude":"125.1159"},"timezone":{"offset":"-8:00","description":"Pacific Time (US & Canada)"}}},{"name":{"title":"Mr","first":"Hector","last":"Obrien"},"location":{"street":{"number":5208,"name":"Main Road"},"city":"Glasgow","state":"Dyfed","country":"United Kingdom","postcode":"J74 6TE","coordinates":{"latitude":"-15.7177","longitude":"-117.7268"},"timezone":{"offset":"+3:00","description":"Baghdad, Riyadh, Moscow, St. Petersburg"}}},{"name":{"title":"Mrs","first":"Cecilie","last":"Nesset"},"location":{"street":{"number":4404,"name":"Frydenbergveien"},"city":"Fuglevik","state":"Møre og Romsdal","country":"Norway","postcode":"7227","coordinates":{"latitude":"-0.1963","longitude":"127.0024"},"timezone":{"offset":"-8:00","description":"Pacific Time (US & Canada)"}}},{"name":{"title":"Mr","first":"Frankie","last":"Rice"},"location":{"street":{"number":1582,"name":"The Avenue"},"city":"Loughrea","state":"Roscommon","country":"Ireland","postcode":65715,"coordinates":{"latitude":"-87.9773","longitude":"-144.9305"},"timezone":{"offset":"-3:30","description":"Newfoundland"}}},{"name":{"title":"Ms","first":"نیایش","last":"علیزاده"},"location":{"street":{"number":1864,"name":"موسیوند"},"city":"ملارد","state":"ایلام","country":"Iran","postcode":98391,"coordinates":{"latitude":"-62.7245","longitude":"168.9677"},"timezone":{"offset":"+4:00","description":"Abu Dhabi, Muscat, Baku, Tbilisi"}}},{"name":{"title":"Mr","first":"Hugo","last":"Roberts"},"location":{"street":{"number":1954,"name":"Pah Road"},"city":"Timaru","state":"Otago","country":"New Zealand","postcode":84549,"coordinates":{"latitude":"78.3432","longitude":"-167.7820"},"timezone":{"offset":"+11:00","description":"Magadan, Solomon Islands, New Caledonia"}}},{"name":{"title":"Mr","first":"Miro","last":"Tikkanen"},"location":{"street":{"number":6083,"name":"Aleksanterinkatu"},"city":"Pihtipudas","state":"Uusimaa","country":"Finland","postcode":96029,"coordinates":{"latitude":"2.9512","longitude":"151.6315"},"timezone":{"offset":"+11:00","description":"Magadan, Solomon Islands, New Caledonia"}}},{"name":{"title":"Ms","first":"Marie","last":"Morrison"},"location":{"street":{"number":9839,"name":"Oaks Cross"},"city":"Ripon","state":"North Yorkshire","country":"United Kingdom","postcode":"AM86 7YB","coordinates":{"latitude":"-80.1860","longitude":"141.1876"},"timezone":{"offset":"-11:00","description":"Midway Island, Samoa"}}},{"name":{"title":"Miss","first":"Felicia","last":"Rørstad"},"location":{"street":{"number":6949,"name":"Lærer Holes vei"},"city":"Skogsvågen","state":"Sogn og Fjordane","country":"Norway","postcode":"5115","coordinates":{"latitude":"-1.1610","longitude":"-102.2518"},"timezone":{"offset":"+4:00","description":"Abu Dhabi, Muscat, Baku, Tbilisi"}}},{"name":{"title":"Miss","first":"Cristiane","last":"Barros"},"location":{"street":{"number":2218,"name":"Rua Boa Vista "},"city":"Aracaju","state":"Paraná","country":"Brazil","postcode":55566,"coordinates":{"latitude":"-48.9594","longitude":"-61.1899"},"timezone":{"offset":"+2:00","description":"Kaliningrad, South Africa"}}},{"name":{"title":"Mademoiselle","first":"Larissa","last":"Charles"},"location":{"street":{"number":2466,"name":"Rue Victor-Hugo"},"city":"Mollens (Vd)","state":"St. Gallen","country":"Switzerland","postcode":4094,"coordinates":{"latitude":"60.5348","longitude":"9.3572"},"timezone":{"offset":"-3:00","description":"Brazil, Buenos Aires, Georgetown"}}},{"name":{"title":"Mr","first":"Adalsino","last":"Novaes"},"location":{"street":{"number":2402,"name":"Rua São João "},"city":"Goiânia","state":"Distrito Federal","country":"Brazil","postcode":51389,"coordinates":{"latitude":"-61.2108","longitude":"-160.4897"},"timezone":{"offset":"+4:00","description":"Abu Dhabi, Muscat, Baku, Tbilisi"}}},{"name":{"title":"Mr","first":"Josep","last":"Cabrera"},"location":{"street":{"number":9519,"name":"Calle del Barquillo"},"city":"Murcia","state":"Castilla y León","country":"Spain","postcode":49015,"coordinates":{"latitude":"73.5143","longitude":"-30.8756"},"timezone":{"offset":"+2:00","description":"Kaliningrad, South Africa"}}},{"name":{"title":"Mrs","first":"Gonca","last":"Abadan"},"location":{"street":{"number":5948,"name":"Atatürk Sk"},"city":"Muş","state":"Mersin","country":"Turkey","postcode":10321,"coordinates":{"latitude":"-79.5360","longitude":"158.0452"},"timezone":{"offset":"-8:00","description":"Pacific Time (US & Canada)"}}},{"name":{"title":"Mr","first":"Levi","last":"Fox"},"location":{"street":{"number":3624,"name":"Westheimer Rd"},"city":"Port Macquarie","state":"Victoria","country":"Australia","postcode":4387,"coordinates":{"latitude":"3.7800","longitude":"-42.5669"},"timezone":{"offset":"-10:00","description":"Hawaii"}}},{"name":{"title":"Ms","first":"Mariângela","last":"Dias"},"location":{"street":{"number":3428,"name":"Rua Boa Vista "},"city":"Imperatriz","state":"Pernambuco","country":"Brazil","postcode":92842,"coordinates":{"latitude":"40.2472","longitude":"4.8153"},"timezone":{"offset":"+1:00","description":"Brussels, Copenhagen, Madrid, Paris"}}},{"name":{"title":"Mrs","first":"Snizhana","last":"Skoba"},"location":{"street":{"number":1493,"name":"Gvardiyciv-Shironinciv"},"city":"Krasnograd","state":"Hmelnicka","country":"Ukraine","postcode":70764,"coordinates":{"latitude":"-85.6611","longitude":"176.2544"},"timezone":{"offset":"+11:00","description":"Magadan, Solomon Islands, New Caledonia"}}},{"name":{"title":"Ms","first":"Carmen","last":"Davidson"},"location":{"street":{"number":9510,"name":"Fairview St"},"city":"Launceston","state":"Northern Territory","country":"Australia","postcode":222,"coordinates":{"latitude":"-24.5008","longitude":"122.5136"},"timezone":{"offset":"+9:00","description":"Tokyo, Seoul, Osaka, Sapporo, Yakutsk"}}},{"name":{"title":"Miss","first":"Donita","last":"Babu"},"location":{"street":{"number":3332,"name":"Ashoka Rd"},"city":"Solapur","state":"Rajasthan","country":"India","postcode":90419,"coordinates":{"latitude":"26.7506","longitude":"133.8079"},"timezone":{"offset":"-9:00","description":"Alaska"}}},{"name":{"title":"Mrs","first":"Altamira","last":"Novaes"},"location":{"street":{"number":4435,"name":"Rua Sete de Setembro "},"city":"Itaboraí","state":"Piauí","country":"Brazil","postcode":91560,"coordinates":{"latitude":"-36.0630","longitude":"57.7451"},"timezone":{"offset":"+9:30","description":"Adelaide, Darwin"}}},{"name":{"title":"Mrs","first":"Adela","last":"Armas"},"location":{"street":{"number":4793,"name":"Continuación China"},"city":"Las Pintas","state":"Aguascalientes","country":"Mexico","postcode":99964,"coordinates":{"latitude":"-61.4178","longitude":"170.0611"},"timezone":{"offset":"+4:00","description":"Abu Dhabi, Muscat, Baku, Tbilisi"}}},{"name":{"title":"Mrs","first":"Generosa","last":"Cardoso"},"location":{"street":{"number":9659,"name":"Rua Paraná "},"city":"Rio de Janeiro","state":"Distrito Federal","country":"Brazil","postcode":56948,"coordinates":{"latitude":"-46.1362","longitude":"56.0593"},"timezone":{"offset":"+9:30","description":"Adelaide, Darwin"}}},{"name":{"title":"Mr","first":"Cristian","last":"Mireles"},"location":{"street":{"number":5949,"name":"Privada Ucrania"},"city":"San Juan del Llanito","state":"Chihuahua","country":"Mexico","postcode":38573,"coordinates":{"latitude":"27.9372","longitude":"-122.0026"},"timezone":{"offset":"-1:00","description":"Azores, Cape Verde Islands"}}},{"name":{"title":"Monsieur","first":"Gaëtan","last":"Boyer"},"location":{"street":{"number":9481,"name":"Rue Saint-Georges"},"city":"Langrickenbach","state":"Luzern","country":"Switzerland","postcode":8779,"coordinates":{"latitude":"69.9439","longitude":"161.1172"},"timezone":{"offset":"-1:00","description":"Azores, Cape Verde Islands"}}},{"name":{"title":"Mr","first":"Alexander","last":"Møller"},"location":{"street":{"number":9860,"name":"Kløvervej"},"city":"Stoevring","state":"Hovedstaden","country":"Denmark","postcode":29299,"coordinates":{"latitude":"-26.0365","longitude":"32.2088"},"timezone":{"offset":"+5:45","description":"Kathmandu"}}},{"name":{"title":"Mrs","first":"Deniz","last":"Menemencioğlu"},"location":{"street":{"number":8190,"name":"Talak Göktepe Cd"},"city":"İstanbul","state":"Afyonkarahisar","country":"Turkey","postcode":15804,"coordinates":{"latitude":"46.9420","longitude":"33.9018"},"timezone":{"offset":"+4:00","description":"Abu Dhabi, Muscat, Baku, Tbilisi"}}},{"name":{"title":"Mrs","first":"Diane","last":"Fournier"},"location":{"street":{"number":1727,"name":"Rue des Chartreux"},"city":"Orléans","state":"Loire-Atlantique","country":"France","postcode":68473,"coordinates":{"latitude":"61.6968","longitude":"25.1470"},"timezone":{"offset":"+9:00","description":"Tokyo, Seoul, Osaka, Sapporo, Yakutsk"}}},{"name":{"title":"Ms","first":"Manvitha","last":"Belligatti"},"location":{"street":{"number":2255,"name":"Commercial St"},"city":"Kochi","state":"Goa","country":"India","postcode":23068,"coordinates":{"latitude":"-73.1925","longitude":"130.3483"},"timezone":{"offset":"+3:00","description":"Baghdad, Riyadh, Moscow, St. Petersburg"}}},{"name":{"title":"Ms","first":"Donita","last":"Bhardwaj"},"location":{"street":{"number":1696,"name":"Rani No Hajiro"},"city":"Mirzapur","state":"Karnataka","country":"India","postcode":29003,"coordinates":{"latitude":"73.2058","longitude":"73.2279"},"timezone":{"offset":"+11:00","description":"Magadan, Solomon Islands, New Caledonia"}}},{"name":{"title":"Mr","first":"Ricardo","last":"Barreto"},"location":{"street":{"number":8764,"name":"Prolongación Alemán"},"city":"Maravatío","state":"Sinaloa","country":"Mexico","postcode":99933,"coordinates":{"latitude":"42.3646","longitude":"147.7891"},"timezone":{"offset":"+5:45","description":"Kathmandu"}}},{"name":{"title":"Mr","first":"Felix","last":"Ginnish"},"location":{"street":{"number":3265,"name":"Duke St"},"city":"Sutton","state":"Newfoundland and Labrador","country":"Canada","postcode":"Q3C 9T6","coordinates":{"latitude":"25.9515","longitude":"-179.2163"},"timezone":{"offset":"+7:00","description":"Bangkok, Hanoi, Jakarta"}}},{"name":{"title":"Miss","first":"Jülide","last":"Mijnster"},"location":{"street":{"number":5339,"name":"Akkermaalsbos"},"city":"Tjalhuizum","state":"Overijssel","country":"Netherlands","postcode":"9372 GG","coordinates":{"latitude":"-72.3633","longitude":"89.5231"},"timezone":{"offset":"0:00","description":"Western Europe Time, London, Lisbon, Casablanca"}}},{"name":{"title":"Mr","first":"اميرعلي","last":"كامياران"},"location":{"street":{"number":5233,"name":"بلال حبشی"},"city":"پاکدشت","state":"آذربایجان غربی","country":"Iran","postcode":55020,"coordinates":{"latitude":"-26.4670","longitude":"-23.4004"},"timezone":{"offset":"0:00","description":"Western Europe Time, London, Lisbon, Casablanca"}}},{"name":{"title":"Ms","first":"Ilse","last":"Jimínez"},"location":{"street":{"number":3031,"name":"Ampliación Coahuila de Zaragoza"},"city":"Villa de Acala","state":"Tamaulipas","country":"Mexico","postcode":57371,"coordinates":{"latitude":"-2.4795","longitude":"170.2251"},"timezone":{"offset":"-3:00","description":"Brazil, Buenos Aires, Georgetown"}}},{"name":{"title":"Mr","first":"Noe","last":"Bertrand"},"location":{"street":{"number":2023,"name":"Rue du Bât-D'Argent"},"city":"Champigny-sur-Marne","state":"Seine-Saint-Denis","country":"France","postcode":35952,"coordinates":{"latitude":"14.9189","longitude":"-113.5409"},"timezone":{"offset":"-4:00","description":"Atlantic Time (Canada), Caracas, La Paz"}}},{"name":{"title":"Mr","first":"Gabriel","last":"Barrett"},"location":{"street":{"number":8183,"name":"W Gray St"},"city":"Sunshine Coast","state":"Australian Capital Territory","country":"Australia","postcode":4151,"coordinates":{"latitude":"-28.1572","longitude":"-4.3984"},"timezone":{"offset":"-6:00","description":"Central Time (US & Canada), Mexico City"}}},{"name":{"title":"Mr","first":"Roberto","last":"Ramirez"},"location":{"street":{"number":6596,"name":"Bruce St"},"city":"Nashville","state":"Arkansas","country":"United States","postcode":10588,"coordinates":{"latitude":"-39.7516","longitude":"77.1112"},"timezone":{"offset":"+8:00","description":"Beijing, Perth, Singapore, Hong Kong"}}},{"name":{"title":"Mr","first":"Pavle","last":"Rađen"},"location":{"street":{"number":8491,"name":"Pavla Nikolića"},"city":"Crna Trava","state":"South Banat","country":"Serbia","postcode":62469,"coordinates":{"latitude":"-17.6408","longitude":"-155.1744"},"timezone":{"offset":"+4:00","description":"Abu Dhabi, Muscat, Baku, Tbilisi"}}},{"name":{"title":"Mrs","first":"Başak","last":"Lageveen"},"location":{"street":{"number":422,"name":"Jan van Scorelstraat"},"city":"Rotterdam","state":"Overijssel","country":"Netherlands","postcode":"8947 WD","coordinates":{"latitude":"-13.2216","longitude":"-65.0769"},"timezone":{"offset":"+8:00","description":"Beijing, Perth, Singapore, Hong Kong"}}},{"name":{"title":"Miss","first":"Leila","last":"Ohnstad"},"location":{"street":{"number":6869,"name":"Østerliveien"},"city":"Høle","state":"Nord-Trøndelag","country":"Norway","postcode":"0157","coordinates":{"latitude":"3.2859","longitude":"-54.2594"},"timezone":{"offset":"-5:00","description":"Eastern Time (US & Canada), Bogota, Lima"}}},{"name":{"title":"Miss","first":"Gabriella","last":"Johnston"},"location":{"street":{"number":5626,"name":"Daisy Dr"},"city":"Maitland","state":"Tasmania","country":"Australia","postcode":9237,"coordinates":{"latitude":"-1.1681","longitude":"175.0504"},"timezone":{"offset":"-8:00","description":"Pacific Time (US & Canada)"}}},{"name":{"title":"Mr","first":"Jaime","last":"Santana"},"location":{"street":{"number":1867,"name":"Calle de La Democracia"},"city":"Valencia","state":"Islas Baleares","country":"Spain","postcode":47994,"coordinates":{"latitude":"39.3709","longitude":"-8.0823"},"timezone":{"offset":"+3:00","description":"Baghdad, Riyadh, Moscow, St. Petersburg"}}},{"name":{"title":"Mr","first":"Abel","last":"Blanco"},"location":{"street":{"number":4021,"name":"Continuación Puebla"},"city":"San Juan Tilapa","state":"Coahuila","country":"Mexico","postcode":48325,"coordinates":{"latitude":"-53.4779","longitude":"133.1566"},"timezone":{"offset":"-10:00","description":"Hawaii"}}},{"name":{"title":"Mrs","first":"Iida","last":"Ylitalo"},"location":{"street":{"number":4480,"name":"Tahmelantie"},"city":"Somero","state":"Finland Proper","country":"Finland","postcode":46586,"coordinates":{"latitude":"85.4560","longitude":"-161.2984"},"timezone":{"offset":"+2:00","description":"Kaliningrad, South Africa"}}},{"name":{"title":"Mr","first":"Gökan","last":"Pouwels"},"location":{"street":{"number":261,"name":"Branskamp"},"city":"Baaiduinen","state":"Noord-Holland","country":"Netherlands","postcode":"4726 HD","coordinates":{"latitude":"-31.4450","longitude":"82.7987"},"timezone":{"offset":"+9:30","description":"Adelaide, Darwin"}}},{"name":{"title":"Ms","first":"Geetha","last":"Chiplunkar"},"location":{"street":{"number":5653,"name":"Bhootnath Rd"},"city":"Ichalkaranji","state":"Himachal Pradesh","country":"India","postcode":39760,"coordinates":{"latitude":"-38.2250","longitude":"157.3788"},"timezone":{"offset":"+6:00","description":"Almaty, Dhaka, Colombo"}}},{"name":{"title":"Ms","first":"Feikje","last":"Verkuijlen"},"location":{"street":{"number":7795,"name":"Koopmanshof"},"city":"Oosterend Terschelling","state":"Gelderland","country":"Netherlands","postcode":"4413 ES","coordinates":{"latitude":"-20.8930","longitude":"-50.6175"},"timezone":{"offset":"-7:00","description":"Mountain Time (US & Canada)"}}},{"name":{"title":"Mr","first":"Liliano","last":"Melo"},"location":{"street":{"number":9243,"name":"Rua Castro Alves "},"city":"Salvador","state":"Santa Catarina","country":"Brazil","postcode":50205,"coordinates":{"latitude":"-42.0997","longitude":"-27.8947"},"timezone":{"offset":"-5:00","description":"Eastern Time (US & Canada), Bogota, Lima"}}},{"name":{"title":"Miss","first":"پارمیس","last":"جعفری"},"location":{"street":{"number":7702,"name":"ایران"},"city":"کرج","state":"اصفهان","country":"Iran","postcode":21328,"coordinates":{"latitude":"13.3712","longitude":"-60.6133"},"timezone":{"offset":"+8:00","description":"Beijing, Perth, Singapore, Hong Kong"}}},{"name":{"title":"Mrs","first":"Nieves","last":"Diez"},"location":{"street":{"number":4326,"name":"Calle de Ferraz"},"city":"La Coruña","state":"La Rioja","country":"Spain","postcode":94175,"coordinates":{"latitude":"-18.2079","longitude":"-105.8619"},"timezone":{"offset":"+5:00","description":"Ekaterinburg, Islamabad, Karachi, Tashkent"}}},{"name":{"title":"Miss","first":"Rusana","last":"Gordiienko"},"location":{"street":{"number":230,"name":"Provulok Geofizikiv"},"city":"Kam'yanka-Dniprovska","state":"Odeska","country":"Ukraine","postcode":34792,"coordinates":{"latitude":"-47.7041","longitude":"166.6083"},"timezone":{"offset":"+2:00","description":"Kaliningrad, South Africa"}}},{"name":{"title":"Mr","first":"Vlade","last":"Teodosić"},"location":{"street":{"number":8860,"name":"Eugena Savojskog "},"city":"Raška","state":"Kosovska Mitrovica","country":"Serbia","postcode":50110,"coordinates":{"latitude":"31.3667","longitude":"35.0295"},"timezone":{"offset":"-12:00","description":"Eniwetok, Kwajalein"}}},{"name":{"title":"Mrs","first":"Feliksa","last":"Carik"},"location":{"street":{"number":9202,"name":"Bulvar Dmitra Vishneveckogo"},"city":"Hotin","state":"Kirovogradska","country":"Ukraine","postcode":99751,"coordinates":{"latitude":"-71.6760","longitude":"90.2814"},"timezone":{"offset":"-7:00","description":"Mountain Time (US & Canada)"}}},{"name":{"title":"Miss","first":"Anette","last":"Kringstad"},"location":{"street":{"number":7042,"name":"Skøyenåsveien"},"city":"Ulvik","state":"Nord-Trøndelag","country":"Norway","postcode":"9610","coordinates":{"latitude":"35.7195","longitude":"-96.1220"},"timezone":{"offset":"-7:00","description":"Mountain Time (US & Canada)"}}},{"name":{"title":"Mr","first":"Julius","last":"Niska"},"location":{"street":{"number":7480,"name":"Tahmelantie"},"city":"Juupajoki","state":"North Karelia","country":"Finland","postcode":26534,"coordinates":{"latitude":"-67.1170","longitude":"92.9973"},"timezone":{"offset":"-2:00","description":"Mid-Atlantic"}}},{"name":{"title":"Miss","first":"کیمیا","last":"سلطانی نژاد"},"location":{"street":{"number":5352,"name":"امام خمینی"},"city":"خوی","state":"آذربایجان شرقی","country":"Iran","postcode":73480,"coordinates":{"latitude":"39.2814","longitude":"-37.9670"},"timezone":{"offset":"-5:00","description":"Eastern Time (US & Canada), Bogota, Lima"}}},{"name":{"title":"Miss","first":"Ella","last":"Hunt"},"location":{"street":{"number":6282,"name":"Queensway"},"city":"Manchester","state":"Norfolk","country":"United Kingdom","postcode":"A1T 5NJ","coordinates":{"latitude":"56.8858","longitude":"43.8661"},"timezone":{"offset":"+11:00","description":"Magadan, Solomon Islands, New Caledonia"}}},{"name":{"title":"Mr","first":"Kabir","last":"Patil"},"location":{"street":{"number":9312,"name":"NAD X Rd"},"city":"Saharanpur","state":"Andaman and Nicobar Islands","country":"India","postcode":91046,"coordinates":{"latitude":"72.1971","longitude":"125.3073"},"timezone":{"offset":"+5:30","description":"Bombay, Calcutta, Madras, New Delhi"}}},{"name":{"title":"Mrs","first":"Pippa","last":"Moore"},"location":{"street":{"number":1848,"name":"Ronwood Avenue"},"city":"Whangarei","state":"Otago","country":"New Zealand","postcode":83703,"coordinates":{"latitude":"-33.2478","longitude":"-22.2606"},"timezone":{"offset":"-8:00","description":"Pacific Time (US & Canada)"}}},{"name":{"title":"Mr","first":"Sai","last":"Mugeraya"},"location":{"street":{"number":9762,"name":"Sao Tome Old Quarter"},"city":"Pimpri-Chinchwad","state":"Daman and Diu","country":"India","postcode":62578,"coordinates":{"latitude":"10.9839","longitude":"173.4816"},"timezone":{"offset":"+6:00","description":"Almaty, Dhaka, Colombo"}}},{"name":{"title":"Mr","first":"سینا","last":"یاسمی"},"location":{"street":{"number":4349,"name":"تقوی"},"city":"شیراز","state":"اصفهان","country":"Iran","postcode":86585,"coordinates":{"latitude":"-27.3489","longitude":"-27.7341"},"timezone":{"offset":"+6:00","description":"Almaty, Dhaka, Colombo"}}},{"name":{"title":"Miss","first":"آرمیتا","last":"كامياران"},"location":{"street":{"number":7056,"name":"آزادی"},"city":"دزفول","state":"یزد","country":"Iran","postcode":25673,"coordinates":{"latitude":"6.7913","longitude":"-94.3906"},"timezone":{"offset":"-1:00","description":"Azores, Cape Verde Islands"}}},{"name":{"title":"Miss","first":"Magdalena","last":"Tripković"},"location":{"street":{"number":382,"name":"Mramoračka"},"city":"Petrovac na Mlavi","state":"Kosovo-Pomoravlje","country":"Serbia","postcode":12247,"coordinates":{"latitude":"-45.8300","longitude":"87.3150"},"timezone":{"offset":"-3:00","description":"Brazil, Buenos Aires, Georgetown"}}},{"name":{"title":"Mr","first":"Ron","last":"Alvarez"},"location":{"street":{"number":6327,"name":"Hickory Creek Dr"},"city":"Queanbeyan","state":"New South Wales","country":"Australia","postcode":2668,"coordinates":{"latitude":"-9.7797","longitude":"60.8877"},"timezone":{"offset":"-3:30","description":"Newfoundland"}}},{"name":{"title":"Mr","first":"Viljar","last":"Aaserud"},"location":{"street":{"number":1033,"name":"Granstangen"},"city":"Svøo","state":"Sogn og Fjordane","country":"Norway","postcode":"0584","coordinates":{"latitude":"-38.2332","longitude":"136.9070"},"timezone":{"offset":"+3:00","description":"Baghdad, Riyadh, Moscow, St. Petersburg"}}},{"name":{"title":"Mr","first":"Magnus","last":"Nielsen"},"location":{"street":{"number":2489,"name":"Humlehaven"},"city":"Vipperød","state":"Danmark","country":"Denmark","postcode":36435,"coordinates":{"latitude":"-83.0592","longitude":"-114.7630"},"timezone":{"offset":"-4:00","description":"Atlantic Time (Canada), Caracas, La Paz"}}},{"name":{"title":"Mrs","first":"Sharon","last":"Wells"},"location":{"street":{"number":3116,"name":"Queensway"},"city":"Chester","state":"Lothian","country":"United Kingdom","postcode":"M4H 7GZ","coordinates":{"latitude":"-75.5174","longitude":"-142.0155"},"timezone":{"offset":"-4:00","description":"Atlantic Time (Canada), Caracas, La Paz"}}},{"name":{"title":"Miss","first":"Sofija","last":"Nenadović"},"location":{"street":{"number":3561,"name":"Rusalkina"},"city":"Rača","state":"Toplica","country":"Serbia","postcode":59509,"coordinates":{"latitude":"-82.1759","longitude":"-137.2847"},"timezone":{"offset":"+9:30","description":"Adelaide, Darwin"}}},{"name":{"title":"Mrs","first":"Kashvi","last":"Mardhekar"},"location":{"street":{"number":3798,"name":"Vellala St"},"city":"Morbi","state":"Lakshadweep","country":"India","postcode":95673,"coordinates":{"latitude":"64.3493","longitude":"-110.1330"},"timezone":{"offset":"+11:00","description":"Magadan, Solomon Islands, New Caledonia"}}},{"name":{"title":"Mr","first":"Umut","last":"Polat"},"location":{"street":{"number":6599,"name":"Doktorlar Cd"},"city":"Kırklareli","state":"Kastamonu","country":"Turkey","postcode":70107,"coordinates":{"latitude":"65.1176","longitude":"20.8257"},"timezone":{"offset":"-7:00","description":"Mountain Time (US & Canada)"}}},{"name":{"title":"Mr","first":"Çağri","last":"Van Splunter"},"location":{"street":{"number":6012,"name":"J.S. Millstraat"},"city":"Koekange","state":"Gelderland","country":"Netherlands","postcode":"0595 RG","coordinates":{"latitude":"29.0749","longitude":"36.5302"},"timezone":{"offset":"-4:00","description":"Atlantic Time (Canada), Caracas, La Paz"}}},{"name":{"title":"Ms","first":"Susie","last":"Harrison"},"location":{"street":{"number":7975,"name":"Tara Street"},"city":"Longford","state":"Cork City","country":"Ireland","postcode":58316,"coordinates":{"latitude":"80.0224","longitude":"137.6762"},"timezone":{"offset":"+11:00","description":"Magadan, Solomon Islands, New Caledonia"}}},{"name":{"title":"Mr","first":"Kenan","last":"Elçiboğa"},"location":{"street":{"number":5463,"name":"Necatibey Cd"},"city":"İzmir","state":"Burdur","country":"Turkey","postcode":86710,"coordinates":{"latitude":"88.6344","longitude":"-35.1369"},"timezone":{"offset":"+6:00","description":"Almaty, Dhaka, Colombo"}}},{"name":{"title":"Ms","first":"Ostrozora","last":"Farion"},"location":{"street":{"number":3829,"name":"Cheska"},"city":"Kiliya","state":"Odeska","country":"Ukraine","postcode":91835,"coordinates":{"latitude":"-78.6887","longitude":"-28.2144"},"timezone":{"offset":"+6:00","description":"Almaty, Dhaka, Colombo"}}},{"name":{"title":"Mr","first":"Jeet","last":"Hiremath"},"location":{"street":{"number":273,"name":"Shakespeare Sarani"},"city":"Morbi","state":"Karnataka","country":"India","postcode":81357,"coordinates":{"latitude":"60.7578","longitude":"59.0269"},"timezone":{"offset":"0:00","description":"Western Europe Time, London, Lisbon, Casablanca"}}},{"name":{"title":"Ms","first":"Melissa","last":"Mendoza"},"location":{"street":{"number":9671,"name":"Mill Road"},"city":"Donabate","state":"Leitrim","country":"Ireland","postcode":56487,"coordinates":{"latitude":"-75.6256","longitude":"-42.6659"},"timezone":{"offset":"-12:00","description":"Eniwetok, Kwajalein"}}},{"name":{"title":"Miss","first":"Sophia","last":"Brown"},"location":{"street":{"number":7075,"name":"Crawford Street"},"city":"Wellington","state":"Marlborough","country":"New Zealand","postcode":72993,"coordinates":{"latitude":"11.2334","longitude":"-80.4096"},"timezone":{"offset":"-6:00","description":"Central Time (US & Canada), Mexico City"}}},{"name":{"title":"Mr","first":"Nicklas","last":"Hansen"},"location":{"street":{"number":6216,"name":"Bakkevænget"},"city":"Støvring ","state":"Sjælland","country":"Denmark","postcode":99657,"coordinates":{"latitude":"64.1425","longitude":"-42.2835"},"timezone":{"offset":"+5:30","description":"Bombay, Calcutta, Madras, New Delhi"}}},{"name":{"title":"Mr","first":"Ferre","last":"Looij"},"location":{"street":{"number":834,"name":"Groeveweg"},"city":"Drachten","state":"Groningen","country":"Netherlands","postcode":"3575 GP","coordinates":{"latitude":"31.3239","longitude":"120.2159"},"timezone":{"offset":"-2:00","description":"Mid-Atlantic"}}},{"name":{"title":"Mr","first":"Sai","last":"Andrade"},"location":{"street":{"number":7887,"name":"Ratha Bheedi"},"city":"Rajkot","state":"Bihar","country":"India","postcode":77202,"coordinates":{"latitude":"-7.6140","longitude":"-70.8512"},"timezone":{"offset":"+5:45","description":"Kathmandu"}}},{"name":{"title":"Mademoiselle","first":"Élodie","last":"Colin"},"location":{"street":{"number":9209,"name":"Rue Louis-Garrand"},"city":"Gilly","state":"Solothurn","country":"Switzerland","postcode":4550,"coordinates":{"latitude":"-54.3647","longitude":"105.3263"},"timezone":{"offset":"-8:00","description":"Pacific Time (US & Canada)"}}},{"name":{"title":"Miss","first":"Kaja","last":"Langseth"},"location":{"street":{"number":1913,"name":"Gina Krogs vei"},"city":"Sandane","state":"Oppland","country":"Norway","postcode":"2165","coordinates":{"latitude":"-52.0096","longitude":"-173.0639"},"timezone":{"offset":"-3:00","description":"Brazil, Buenos Aires, Georgetown"}}},{"name":{"title":"Madame","first":"Zeynep","last":"Clement"},"location":{"street":{"number":9271,"name":"Montée du Chemin-Neuf"},"city":"Walterswil (So)","state":"Bern","country":"Switzerland","postcode":1230,"coordinates":{"latitude":"41.3968","longitude":"-118.6896"},"timezone":{"offset":"+1:00","description":"Brussels, Copenhagen, Madrid, Paris"}}},{"name":{"title":"Miss","first":"Sushma","last":"Dsouza"},"location":{"street":{"number":500,"name":"Ashoka Rd"},"city":"Kozhikode","state":"Daman and Diu","country":"India","postcode":92903,"coordinates":{"latitude":"-37.6419","longitude":"52.8319"},"timezone":{"offset":"-5:00","description":"Eastern Time (US & Canada), Bogota, Lima"}}},{"name":{"title":"Mr","first":"Lenni","last":"Luoma"},"location":{"street":{"number":7132,"name":"Hämeentie"},"city":"Vesanto","state":"North Karelia","country":"Finland","postcode":40050,"coordinates":{"latitude":"18.5033","longitude":"122.3095"},"timezone":{"offset":"+8:00","description":"Beijing, Perth, Singapore, Hong Kong"}}},{"name":{"title":"Mr","first":"Leo","last":"Gray"},"location":{"street":{"number":9581,"name":"W 6th St"},"city":"Ironville","state":"Wisconsin","country":"United States","postcode":37548,"coordinates":{"latitude":"-65.8226","longitude":"-32.3226"},"timezone":{"offset":"+2:00","description":"Kaliningrad, South Africa"}}},{"name":{"title":"Mrs","first":"Carmen","last":"Vasquez"},"location":{"street":{"number":6778,"name":"Groveland Terrace"},"city":"Nowra","state":"Australian Capital Territory","country":"Australia","postcode":1856,"coordinates":{"latitude":"49.7875","longitude":"21.7911"},"timezone":{"offset":"+5:00","description":"Ekaterinburg, Islamabad, Karachi, Tashkent"}}},{"name":{"title":"Miss","first":"Aurika","last":"Skorubskiy"},"location":{"street":{"number":596,"name":"Raygorodska"},"city":"Kiliya","state":"Zhitomirska","country":"Ukraine","postcode":11282,"coordinates":{"latitude":"-12.0362","longitude":"27.5288"},"timezone":{"offset":"+10:00","description":"Eastern Australia, Guam, Vladivostok"}}},{"name":{"title":"Miss","first":"Natalie","last":"Young"},"location":{"street":{"number":2068,"name":"Bruce St"},"city":"Celina","state":"Maine","country":"United States","postcode":31978,"coordinates":{"latitude":"-85.7351","longitude":"24.6646"},"timezone":{"offset":"+6:00","description":"Almaty, Dhaka, Colombo"}}},{"name":{"title":"Miss","first":"Ida","last":"Lampe"},"location":{"street":{"number":6686,"name":"Lessingstraße"},"city":"Hessisch Lichtenau","state":"Thüringen","country":"Germany","postcode":51465,"coordinates":{"latitude":"-2.5608","longitude":"26.5146"},"timezone":{"offset":"-2:00","description":"Mid-Atlantic"}}},{"name":{"title":"Mrs","first":"Ellen","last":"Wiita"},"location":{"street":{"number":6007,"name":"Nordenskiöldinkatu"},"city":"Sastamala","state":"Päijät-Häme","country":"Finland","postcode":93153,"coordinates":{"latitude":"-70.4054","longitude":"-30.7665"},"timezone":{"offset":"-6:00","description":"Central Time (US & Canada), Mexico City"}}},{"name":{"title":"Mr","first":"عرشيا","last":"سلطانی نژاد"},"location":{"street":{"number":3784,"name":"شهید استاد حسن بنا"},"city":"بابل","state":"کردستان","country":"Iran","postcode":72765,"coordinates":{"latitude":"16.2960","longitude":"172.8542"},"timezone":{"offset":"+4:30","description":"Kabul"}}},{"name":{"title":"Mr","first":"Varun","last":"Van Capelleveen"},"location":{"street":{"number":8642,"name":"Kosdreef"},"city":"Ulvenhout","state":"Flevoland","country":"Netherlands","postcode":"3583 EP","coordinates":{"latitude":"32.0459","longitude":"68.9404"},"timezone":{"offset":"-4:00","description":"Atlantic Time (Canada), Caracas, La Paz"}}},{"name":{"title":"Mr","first":"Hunter","last":"Thomas"},"location":{"street":{"number":7378,"name":"Lichfield Street"},"city":"Whanganui","state":"Southland","country":"New Zealand","postcode":92145,"coordinates":{"latitude":"-89.1031","longitude":"-107.5781"},"timezone":{"offset":"+4:30","description":"Kabul"}}},{"name":{"title":"Mr","first":"Kelly","last":"Fowler"},"location":{"street":{"number":5289,"name":"Hickory Creek Dr"},"city":"Brisbane","state":"Queensland","country":"Australia","postcode":9555,"coordinates":{"latitude":"-28.6728","longitude":"-54.8599"},"timezone":{"offset":"-1:00","description":"Azores, Cape Verde Islands"}}},{"name":{"title":"Ms","first":"Karla","last":"Kristensen"},"location":{"street":{"number":8972,"name":"Kongevej"},"city":"Agerbæk","state":"Hovedstaden","country":"Denmark","postcode":39668,"coordinates":{"latitude":"32.5185","longitude":"18.6760"},"timezone":{"offset":"-10:00","description":"Hawaii"}}},{"name":{"title":"Ms","first":"Teodora","last":"Subašić"},"location":{"street":{"number":8560,"name":"Porodice Marinković"},"city":"Petrovac na Mlavi","state":"Bor","country":"Serbia","postcode":37605,"coordinates":{"latitude":"39.8488","longitude":"-160.6250"},"timezone":{"offset":"+4:30","description":"Kabul"}}},{"name":{"title":"Mr","first":"Jacinto","last":"Leyva"},"location":{"street":{"number":6644,"name":"Eje vial Lucio"},"city":"Ejido Distrito Federal","state":"Campeche","country":"Mexico","postcode":96584,"coordinates":{"latitude":"-65.7544","longitude":"49.5653"},"timezone":{"offset":"+9:30","description":"Adelaide, Darwin"}}},{"name":{"title":"Mr","first":"Nicolay","last":"Riemersma"},"location":{"street":{"number":1037,"name":"De Bosch Kemperstraat"},"city":"Mookhoek","state":"Gelderland","country":"Netherlands","postcode":"6073 HN","coordinates":{"latitude":"-21.7943","longitude":"-169.0699"},"timezone":{"offset":"-3:00","description":"Brazil, Buenos Aires, Georgetown"}}},{"name":{"title":"Miss","first":"Maja","last":"Andersen"},"location":{"street":{"number":3400,"name":"Nyborgvej"},"city":"Rødvig Stevns","state":"Nordjylland","country":"Denmark","postcode":85091,"coordinates":{"latitude":"2.6406","longitude":"-31.9602"},"timezone":{"offset":"+3:00","description":"Baghdad, Riyadh, Moscow, St. Petersburg"}}},{"name":{"title":"Miss","first":"Sylvana","last":"Armbruster"},"location":{"street":{"number":456,"name":"Wiesenstraße"},"city":"Staufenberg","state":"Hamburg","country":"Germany","postcode":91399,"coordinates":{"latitude":"50.1499","longitude":"-83.6177"},"timezone":{"offset":"+11:00","description":"Magadan, Solomon Islands, New Caledonia"}}},{"name":{"title":"Mademoiselle","first":"Emily","last":"Lemoine"},"location":{"street":{"number":7300,"name":"Place de la Mairie"},"city":"Langenthal","state":"Fribourg","country":"Switzerland","postcode":7959,"coordinates":{"latitude":"-12.3533","longitude":"123.4216"},"timezone":{"offset":"+5:45","description":"Kathmandu"}}},{"name":{"title":"Mr","first":"Bozhan","last":"Kaplun"},"location":{"street":{"number":8774,"name":"Povitroflotska"},"city":"Marganec","state":"Odeska","country":"Ukraine","postcode":75646,"coordinates":{"latitude":"50.0302","longitude":"90.6859"},"timezone":{"offset":"-6:00","description":"Central Time (US & Canada), Mexico City"}}},{"name":{"title":"Miss","first":"Emily","last":"Olsen"},"location":{"street":{"number":5373,"name":"Anlægsvej"},"city":"Juelsminde","state":"Hovedstaden","country":"Denmark","postcode":84057,"coordinates":{"latitude":"4.9640","longitude":"145.1233"},"timezone":{"offset":"+1:00","description":"Brussels, Copenhagen, Madrid, Paris"}}},{"name":{"title":"Ms","first":"Rose","last":"Wang"},"location":{"street":{"number":7529,"name":"Sinclair Street"},"city":"Whangarei","state":"Wellington","country":"New Zealand","postcode":98934,"coordinates":{"latitude":"85.2035","longitude":"-26.3846"},"timezone":{"offset":"+8:00","description":"Beijing, Perth, Singapore, Hong Kong"}}},{"name":{"title":"Mr","first":"Eliot","last":"Roger"},"location":{"street":{"number":8368,"name":"Rue de L'Abbé-Grégoire"},"city":"Dunkerque","state":"Ain","country":"France","postcode":19768,"coordinates":{"latitude":"-79.6544","longitude":"42.4185"},"timezone":{"offset":"+3:30","description":"Tehran"}}},{"name":{"title":"Mr","first":"Giray","last":"Abadan"},"location":{"street":{"number":8824,"name":"Talak Göktepe Cd"},"city":"Bolu","state":"Niğde","country":"Turkey","postcode":54340,"coordinates":{"latitude":"-42.8184","longitude":"102.2081"},"timezone":{"offset":"+6:00","description":"Almaty, Dhaka, Colombo"}}},{"name":{"title":"Mr","first":"Darren","last":"Henderson"},"location":{"street":{"number":1772,"name":"The Grove"},"city":"Mountmellick","state":"Sligo","country":"Ireland","postcode":65744,"coordinates":{"latitude":"2.8739","longitude":"-49.8774"},"timezone":{"offset":"-8:00","description":"Pacific Time (US & Canada)"}}},{"name":{"title":"Monsieur","first":"Ernest","last":"Perrin"},"location":{"street":{"number":8082,"name":"Rue des Cuirassiers"},"city":"Füllinsdorf","state":"Fribourg","country":"Switzerland","postcode":5213,"coordinates":{"latitude":"-35.8161","longitude":"61.5210"},"timezone":{"offset":"-12:00","description":"Eniwetok, Kwajalein"}}},{"name":{"title":"Mr","first":"Barış","last":"Taşlı"},"location":{"street":{"number":9809,"name":"Vatan Cd"},"city":"Yalova","state":"Gümüşhane","country":"Turkey","postcode":64724,"coordinates":{"latitude":"78.3810","longitude":"-133.1931"},"timezone":{"offset":"-1:00","description":"Azores, Cape Verde Islands"}}},{"name":{"title":"Mrs","first":"Alice","last":"Schmitt"},"location":{"street":{"number":9078,"name":"Rue du Bât-D'Argent"},"city":"Perpignan","state":"Lot-et-Garonne","country":"France","postcode":23344,"coordinates":{"latitude":"-82.3973","longitude":"79.8182"},"timezone":{"offset":"-9:00","description":"Alaska"}}},{"name":{"title":"Mr","first":"Vincent","last":"Evans"},"location":{"street":{"number":7777,"name":"Taieri Road"},"city":"Tauranga","state":"West Coast","country":"New Zealand","postcode":38456,"coordinates":{"latitude":"56.9207","longitude":"-94.1873"},"timezone":{"offset":"+8:00","description":"Beijing, Perth, Singapore, Hong Kong"}}},{"name":{"title":"Monsieur","first":"James","last":"Fleury"},"location":{"street":{"number":102,"name":"Rue du Bât-D'Argent"},"city":"Torny","state":"Bern","country":"Switzerland","postcode":9420,"coordinates":{"latitude":"70.2612","longitude":"98.3122"},"timezone":{"offset":"-3:30","description":"Newfoundland"}}},{"name":{"title":"Mademoiselle","first":"Esther","last":"Fournier"},"location":{"street":{"number":6693,"name":"Avenue Vauban"},"city":"Caslano","state":"Appenzell Ausserrhoden","country":"Switzerland","postcode":6131,"coordinates":{"latitude":"75.9093","longitude":"-81.3939"},"timezone":{"offset":"+10:00","description":"Eastern Australia, Guam, Vladivostok"}}},{"name":{"title":"Mr","first":"Maxime","last":"Liu"},"location":{"street":{"number":6293,"name":"Victoria Ave"},"city":"Chipman","state":"Newfoundland and Labrador","country":"Canada","postcode":"Z8B 5K0","coordinates":{"latitude":"36.9501","longitude":"141.5986"},"timezone":{"offset":"+10:00","description":"Eastern Australia, Guam, Vladivostok"}}},{"name":{"title":"Mr","first":"Alvin","last":"Jacobs"},"location":{"street":{"number":4703,"name":"Pockrus Page Rd"},"city":"Mackay","state":"Northern Territory","country":"Australia","postcode":4008,"coordinates":{"latitude":"-23.9769","longitude":"118.6866"},"timezone":{"offset":"-4:00","description":"Atlantic Time (Canada), Caracas, La Paz"}}},{"name":{"title":"Mr","first":"حسین","last":"رضایی"},"location":{"street":{"number":357,"name":"آیت‌الله سعیدی"},"city":"ملارد","state":"فارس","country":"Iran","postcode":56265,"coordinates":{"latitude":"28.6628","longitude":"170.1107"},"timezone":{"offset":"+4:00","description":"Abu Dhabi, Muscat, Baku, Tbilisi"}}},{"name":{"title":"Mr","first":"Hunter","last":"Slawa"},"location":{"street":{"number":5314,"name":"Grand Marais Ave"},"city":"Lasalle","state":"Saskatchewan","country":"Canada","postcode":"N9L 0V1","coordinates":{"latitude":"20.6772","longitude":"6.9491"},"timezone":{"offset":"+9:30","description":"Adelaide, Darwin"}}},{"name":{"title":"Mr","first":"Zdravko","last":"Simeonović"},"location":{"street":{"number":7691,"name":"Ljiljane Jovanović"},"city":"Čoka","state":"Pirot","country":"Serbia","postcode":35864,"coordinates":{"latitude":"1.5113","longitude":"61.9166"},"timezone":{"offset":"-10:00","description":"Hawaii"}}},{"name":{"title":"Mr","first":"Manassés","last":"da Rocha"},"location":{"street":{"number":7630,"name":"Rua Quinze de Novembro "},"city":"Taboão da Serra","state":"Minas Gerais","country":"Brazil","postcode":51468,"coordinates":{"latitude":"-5.2310","longitude":"150.7772"},"timezone":{"offset":"-1:00","description":"Azores, Cape Verde Islands"}}},{"name":{"title":"Miss","first":"Alexis","last":"Mackay"},"location":{"street":{"number":5494,"name":"Duke St"},"city":"Princeton","state":"Nunavut","country":"Canada","postcode":"Z6F 7Q6","coordinates":{"latitude":"2.2732","longitude":"137.9631"},"timezone":{"offset":"+7:00","description":"Bangkok, Hanoi, Jakarta"}}},{"name":{"title":"Ms","first":"Ema","last":"Karimi"},"location":{"street":{"number":6166,"name":"Dragonstien"},"city":"Namdalseid","state":"Aust-Agder","country":"Norway","postcode":"0963","coordinates":{"latitude":"-16.2013","longitude":"42.7088"},"timezone":{"offset":"-4:00","description":"Atlantic Time (Canada), Caracas, La Paz"}}},{"name":{"title":"Mr","first":"Eloy","last":"Manzanares"},"location":{"street":{"number":8353,"name":"Calle Tlaxcala"},"city":"Zozocolco de Hidalgo","state":"Tlaxcala","country":"Mexico","postcode":36787,"coordinates":{"latitude":"-48.2483","longitude":"76.4588"},"timezone":{"offset":"0:00","description":"Western Europe Time, London, Lisbon, Casablanca"}}},{"name":{"title":"Mr","first":"Balveer","last":"Shah"},"location":{"street":{"number":6381,"name":"Ashoka Rd"},"city":"Saharsa","state":"Mizoram","country":"India","postcode":53135,"coordinates":{"latitude":"10.6615","longitude":"-52.5798"},"timezone":{"offset":"-11:00","description":"Midway Island, Samoa"}}},{"name":{"title":"Mr","first":"Benito","last":"Fernández"},"location":{"street":{"number":1048,"name":"Calle Covadonga"},"city":"Alcobendas","state":"Navarra","country":"Spain","postcode":28465,"coordinates":{"latitude":"-22.7885","longitude":"63.4485"},"timezone":{"offset":"0:00","description":"Western Europe Time, London, Lisbon, Casablanca"}}},{"name":{"title":"Mrs","first":"درسا","last":"صدر"},"location":{"street":{"number":5219,"name":"قدس"},"city":"کرج","state":"خراسان شمالی","country":"Iran","postcode":13854,"coordinates":{"latitude":"-50.8543","longitude":"-174.7837"},"timezone":{"offset":"-10:00","description":"Hawaii"}}},{"name":{"title":"Miss","first":"Rayan","last":"Arshad"},"location":{"street":{"number":3693,"name":"Husebybakken"},"city":"Hasle","state":"Hedmark","country":"Norway","postcode":"6024","coordinates":{"latitude":"-41.0986","longitude":"-63.6906"},"timezone":{"offset":"-11:00","description":"Midway Island, Samoa"}}},{"name":{"title":"Mr","first":"Andreo","last":"Teixeira"},"location":{"street":{"number":3188,"name":"Rua Maranhão "},"city":"Sapucaia do Sul","state":"Paraná","country":"Brazil","postcode":23073,"coordinates":{"latitude":"21.5878","longitude":"62.5098"},"timezone":{"offset":"+1:00","description":"Brussels, Copenhagen, Madrid, Paris"}}},{"name":{"title":"Ms","first":"Nerea","last":"Gallardo"},"location":{"street":{"number":1494,"name":"Calle de La Democracia"},"city":"Torrevieja","state":"Galicia","country":"Spain","postcode":26668,"coordinates":{"latitude":"-80.4460","longitude":"-29.0598"},"timezone":{"offset":"+5:00","description":"Ekaterinburg, Islamabad, Karachi, Tashkent"}}},{"name":{"title":"Mrs","first":"Sham","last":"Turøy"},"location":{"street":{"number":7816,"name":"Dronning Eufemias gate"},"city":"Bekkjarvik","state":"Møre og Romsdal","country":"Norway","postcode":"8648","coordinates":{"latitude":"32.0378","longitude":"158.7402"},"timezone":{"offset":"-6:00","description":"Central Time (US & Canada), Mexico City"}}},{"name":{"title":"Mr","first":"Marvin","last":"Edwards"},"location":{"street":{"number":7327,"name":"Novara Avenue"},"city":"Navan","state":"Fingal","country":"Ireland","postcode":56212,"coordinates":{"latitude":"60.0458","longitude":"-149.7537"},"timezone":{"offset":"+2:00","description":"Kaliningrad, South Africa"}}},{"name":{"title":"Miss","first":"Tilde","last":"Jørgensen"},"location":{"street":{"number":1240,"name":"Klostergade"},"city":"Ansager","state":"Danmark","country":"Denmark","postcode":89926,"coordinates":{"latitude":"31.7556","longitude":"47.4697"},"timezone":{"offset":"-10:00","description":"Hawaii"}}},{"name":{"title":"Miss","first":"Suzana","last":"Spajić"},"location":{"street":{"number":7390,"name":"Mlečanska"},"city":"Užice","state":"Central Banat","country":"Serbia","postcode":58238,"coordinates":{"latitude":"61.9895","longitude":"76.1169"},"timezone":{"offset":"+1:00","description":"Brussels, Copenhagen, Madrid, Paris"}}},{"name":{"title":"Mr","first":"Tony","last":"Nichols"},"location":{"street":{"number":9917,"name":"E Little York Rd"},"city":"Mildura","state":"Victoria","country":"Australia","postcode":321,"coordinates":{"latitude":"48.2027","longitude":"-152.5741"},"timezone":{"offset":"+5:45","description":"Kathmandu"}}},{"name":{"title":"Mrs","first":"Ariana","last":"Lee"},"location":{"street":{"number":6351,"name":"Ronwood Avenue"},"city":"Whangarei","state":"Southland","country":"New Zealand","postcode":26182,"coordinates":{"latitude":"0.8523","longitude":"-17.4880"},"timezone":{"offset":"+11:00","description":"Magadan, Solomon Islands, New Caledonia"}}},{"name":{"title":"Miss","first":"Justine","last":"Ennis"},"location":{"street":{"number":6959,"name":"Concession Road 6"},"city":"Delta","state":"Northwest Territories","country":"Canada","postcode":"H9E 5H4","coordinates":{"latitude":"-59.2571","longitude":"-65.4195"},"timezone":{"offset":"+4:00","description":"Abu Dhabi, Muscat, Baku, Tbilisi"}}},{"name":{"title":"Mr","first":"Xavier","last":"Herrera"},"location":{"street":{"number":8812,"name":"Calle del Pez"},"city":"San Sebastián de Los Reyes","state":"Andalucía","country":"Spain","postcode":72425,"coordinates":{"latitude":"1.8649","longitude":"-151.8619"},"timezone":{"offset":"+7:00","description":"Bangkok, Hanoi, Jakarta"}}},{"name":{"title":"Mr","first":"Artur","last":"Kramskoy"},"location":{"street":{"number":8769,"name":"Malogoloskivska"},"city":"Burshtin","state":"Zaporizka","country":"Ukraine","postcode":20065,"coordinates":{"latitude":"77.8792","longitude":"-111.6962"},"timezone":{"offset":"+10:00","description":"Eastern Australia, Guam, Vladivostok"}}},{"name":{"title":"Mr","first":"Damião","last":"Pinto"},"location":{"street":{"number":813,"name":"Rua Dom Pedro Ii "},"city":"Porto Seguro","state":"Acre","country":"Brazil","postcode":87615,"coordinates":{"latitude":"-11.1930","longitude":"168.4394"},"timezone":{"offset":"-11:00","description":"Midway Island, Samoa"}}},{"name":{"title":"Ms","first":"Neea","last":"Laurila"},"location":{"street":{"number":2131,"name":"Rotuaari"},"city":"Brändö","state":"Satakunta","country":"Finland","postcode":77431,"coordinates":{"latitude":"-25.7836","longitude":"-63.8420"},"timezone":{"offset":"-5:00","description":"Eastern Time (US & Canada), Bogota, Lima"}}},{"name":{"title":"Mr","first":"Lawrence","last":"Henderson"},"location":{"street":{"number":8996,"name":"Fincher Rd"},"city":"Carlsbad","state":"Alabama","country":"United States","postcode":11233,"coordinates":{"latitude":"-39.9561","longitude":"-176.4698"},"timezone":{"offset":"-7:00","description":"Mountain Time (US & Canada)"}}},{"name":{"title":"Mr","first":"Pelle","last":"Igland"},"location":{"street":{"number":658,"name":"Væringkleiva"},"city":"Blakstad","state":"Oppland","country":"Norway","postcode":"7472","coordinates":{"latitude":"57.4964","longitude":"-151.9223"},"timezone":{"offset":"+9:30","description":"Adelaide, Darwin"}}},{"name":{"title":"Mr","first":"Daniel","last":"Rodriguez"},"location":{"street":{"number":127,"name":"Photinia Ave"},"city":"Steilacoom","state":"Idaho","country":"United States","postcode":72216,"coordinates":{"latitude":"68.7878","longitude":"45.5038"},"timezone":{"offset":"+8:00","description":"Beijing, Perth, Singapore, Hong Kong"}}},{"name":{"title":"Mr","first":"Aaron","last":"Olvera"},"location":{"street":{"number":1094,"name":"Peatonal Arreola"},"city":"Tototlan","state":"Tamaulipas","country":"Mexico","postcode":20019,"coordinates":{"latitude":"-45.5435","longitude":"-43.0535"},"timezone":{"offset":"+2:00","description":"Kaliningrad, South Africa"}}},{"name":{"title":"Mr","first":"Mihaylo","last":"Pisarenko"},"location":{"street":{"number":5771,"name":"Tihoriecka"},"city":"Slavutich","state":"Luganska","country":"Ukraine","postcode":73885,"coordinates":{"latitude":"18.9138","longitude":"113.5487"},"timezone":{"offset":"+5:00","description":"Ekaterinburg, Islamabad, Karachi, Tashkent"}}},{"name":{"title":"Mr","first":"Axel","last":"David"},"location":{"street":{"number":7265,"name":"Rue Paul-Duvivier"},"city":"Metz","state":"Aisne","country":"France","postcode":76789,"coordinates":{"latitude":"-4.6870","longitude":"-135.7307"},"timezone":{"offset":"+9:30","description":"Adelaide, Darwin"}}}],"info":{"seed":"bc8179153e6e32f7","results":500,"page":1,"version":"1.4"}}